"","business_id","open","city","review_count","name","neighborhoods","longitude","state","stars","latitude","type","hours.Friday.close","hours.Friday.open","hours.Tuesday.close","hours.Tuesday.open","hours.Thursday.close","hours.Thursday.open","hours.Wednesday.close","hours.Wednesday.open","hours.Monday.close","hours.Monday.open","hours.Saturday.close","hours.Saturday.open","hours.Sunday.close","hours.Sunday.open","attributes.Take-out","attributes.Drive-Thru","attributes.Caters","attributes.Noise Level","attributes.Takes Reservations","attributes.Delivery","attributes.Has TV","attributes.Outdoor Seating","attributes.Attire","attributes.Alcohol","attributes.Waiter Service","attributes.Accepts Credit Cards","attributes.Good for Kids","attributes.Good For Groups","attributes.Price Range","attributes.Happy Hour","attributes.Good For Dancing","attributes.Coat Check","attributes.Smoking","attributes.Wi-Fi","attributes.Wheelchair Accessible","attributes.Dogs Allowed","attributes.BYOB","attributes.Corkage","attributes.BYOB/Corkage","attributes.Order at Counter","attributes.By Appointment Only","attributes.Accepts Insurance","attributes.Open 24 Hours","attributes.Ages Allowed","attributes.Good For.dessert","attributes.Good For.latenight","attributes.Good For.lunch","attributes.Good For.dinner","attributes.Good For.brunch","attributes.Good For.breakfast","attributes.Ambience.romantic","attributes.Ambience.intimate","attributes.Ambience.classy","attributes.Ambience.hipster","attributes.Ambience.divey","attributes.Ambience.touristy","attributes.Ambience.trendy","attributes.Ambience.upscale","attributes.Ambience.casual","attributes.Parking.garage","attributes.Parking.street","attributes.Parking.validated","attributes.Parking.lot","attributes.Parking.valet","attributes.Music.dj","attributes.Music.background_music","attributes.Music.jukebox","attributes.Music.live","attributes.Music.video","attributes.Music.karaoke","attributes.Hair Types Specialized In.coloring","attributes.Hair Types Specialized In.africanamerican","attributes.Hair Types Specialized In.curly","attributes.Hair Types Specialized In.perms","attributes.Hair Types Specialized In.kids","attributes.Hair Types Specialized In.extensions","attributes.Hair Types Specialized In.asian","attributes.Hair Types Specialized In.straightperms","attributes.Dietary Restrictions.dairy-free","attributes.Dietary Restrictions.gluten-free","attributes.Dietary Restrictions.vegan","attributes.Dietary Restrictions.kosher","attributes.Dietary Restrictions.halal","attributes.Dietary Restrictions.soy-free","attributes.Dietary Restrictions.vegetarian"
"1",27q7XsLrKPNwr8i5RcCOvQ,TRUE,Urbana,13,Boomerang's Bar & Grill,character(0),-88.1925483,IL,4,40.1050134,business,NA,NA,NA,NA,NA,NA,NA,NA,NA,NA,NA,NA,NA,NA,TRUE,NA,FALSE,loud,FALSE,FALSE,TRUE,TRUE,casual,full_bar,TRUE,TRUE,TRUE,TRUE,1,TRUE,TRUE,FALSE,outdoor,free,TRUE,NA,NA,NA,NA,NA,NA,NA,NA,NA,FALSE,TRUE,FALSE,TRUE,FALSE,FALSE,FALSE,FALSE,FALSE,FALSE,TRUE,FALSE,FALSE,FALSE,FALSE,FALSE,FALSE,FALSE,TRUE,FALSE,NA,NA,NA,TRUE,NA,NA,NA,NA,NA,NA,NA,NA,NA,NA,NA,NA,NA,NA,NA,NA,NA
"2",UcuoAlVyNXeD1Na9M47qZw,TRUE,Urbana,3,Casey's Carry Out Pizza,character(0),-88.1813252,IL,3.5,40.114686,business,NA,NA,NA,NA,NA,NA,NA,NA,NA,NA,NA,NA,NA,NA,NA,NA,NA,NA,NA,NA,NA,NA,NA,NA,NA,NA,NA,NA,1,NA,NA,NA,NA,NA,TRUE,NA,NA,NA,NA,NA,NA,NA,NA,NA,NA,NA,NA,NA,NA,NA,NA,NA,NA,NA,NA,NA,NA,NA,NA,NA,NA,NA,NA,NA,NA,NA,NA,NA,NA,NA,NA,NA,NA,NA,NA,NA,NA,NA,NA,NA,NA,NA,NA,NA,NA
"3",4jlqFH3cZsgRdWxZ6kwwvg,TRUE,Urbana,5,Tatman's Car Care,character(0),-88.198572,IL,3.5,40.127874,business,NA,NA,NA,NA,NA,NA,NA,NA,NA,NA,NA,NA,NA,NA,NA,NA,NA,NA,NA,NA,NA,NA,NA,NA,NA,NA,NA,NA,NA,NA,NA,NA,NA,NA,NA,NA,NA,NA,NA,NA,NA,NA,NA,NA,NA,NA,NA,NA,NA,NA,NA,NA,NA,NA,NA,NA,NA,NA,NA,NA,NA,NA,NA,NA,NA,NA,NA,NA,NA,NA,NA,NA,NA,NA,NA,NA,NA,NA,NA,NA,NA,NA,NA,NA,NA
"4",8OwDV1TOJGQQdCs0OdpGWw,TRUE,Urbana,3,Bender Mattress Factory,character(0),-88.2000571,IL,3.5,40.1246223,business,18:00,08:00,18:00,08:00,18:00,08:00,18:00,08:00,18:00,08:00,16:00,09:00,NA,NA,NA,NA,NA,NA,NA,NA,NA,NA,NA,NA,NA,TRUE,NA,NA,2,NA,NA,NA,NA,NA,NA,NA,NA,NA,NA,NA,NA,NA,NA,NA,NA,NA,NA,NA,NA,NA,NA,NA,NA,NA,NA,NA,NA,NA,NA,NA,NA,NA,NA,NA,NA,NA,NA,NA,NA,NA,NA,NA,NA,NA,NA,NA,NA,NA,NA,NA,NA,NA,NA,NA,NA
"5",P_X0pRArVxBjCihppLmHJg,TRUE,Urbana,4,Pro-Tech Motors,character(0),-88.1975496,IL,5,40.1317864,business,17:30,08:00,17:30,08:00,17:30,08:00,17:30,08:00,17:30,08:00,NA,NA,NA,NA,NA,NA,NA,NA,NA,NA,NA,NA,NA,NA,NA,NA,NA,NA,NA,NA,NA,NA,NA,NA,NA,NA,NA,NA,NA,NA,NA,NA,NA,NA,NA,NA,NA,NA,NA,NA,NA,NA,NA,NA,NA,NA,NA,NA,NA,NA,NA,NA,NA,NA,NA,NA,NA,NA,NA,NA,NA,NA,NA,NA,NA,NA,NA,NA,NA,NA,NA,NA,NA,NA,NA
"6",XL5MmKKzob_TIiRW_GnhAA,TRUE,Urbana,5,Urbana True Tires,character(0),-88.2046189,IL,5,40.111454,business,17:30,07:30,17:30,07:30,17:30,07:30,17:30,07:30,17:30,07:30,12:00,08:00,NA,NA,NA,NA,NA,NA,NA,NA,NA,NA,NA,NA,NA,TRUE,NA,NA,NA,NA,NA,NA,NA,NA,NA,NA,NA,NA,NA,NA,NA,NA,NA,NA,NA,NA,NA,NA,NA,NA,NA,NA,NA,NA,NA,NA,NA,NA,NA,NA,NA,NA,NA,NA,NA,NA,NA,NA,NA,NA,NA,NA,NA,NA,NA,NA,NA,NA,NA,NA,NA,NA,NA,NA,NA
"7",2y-lxsP5JSOT8QfLkMx68w,TRUE,Urbana,5,Pretty Nails Spa,character(0),-88.2030657,IL,1.5,40.1134471,business,NA,NA,NA,NA,NA,NA,NA,NA,NA,NA,NA,NA,NA,NA,NA,NA,NA,NA,NA,NA,NA,NA,NA,NA,NA,TRUE,NA,NA,4,NA,NA,NA,NA,NA,NA,NA,NA,NA,NA,NA,FALSE,NA,NA,NA,NA,NA,NA,NA,NA,NA,NA,NA,NA,NA,NA,NA,NA,NA,NA,FALSE,FALSE,FALSE,FALSE,FALSE,NA,NA,NA,NA,NA,NA,NA,NA,NA,NA,NA,NA,NA,NA,NA,NA,NA,NA,NA,NA,NA
"8",R7BhC4Yrwi2HVZHi7VX_tQ,TRUE,Urbana,11,Caring Hands Animal Hospital,character(0),-88.1903451,IL,4,40.0977687,business,00:00,08:00,00:00,08:00,00:00,08:00,00:00,08:00,00:00,08:00,00:00,09:00,01:00,00:00,NA,NA,NA,NA,NA,NA,NA,NA,NA,NA,NA,NA,NA,NA,NA,NA,NA,NA,NA,NA,NA,NA,NA,NA,NA,NA,NA,NA,NA,NA,NA,NA,NA,NA,NA,NA,NA,NA,NA,NA,NA,NA,NA,NA,NA,NA,NA,NA,NA,NA,NA,NA,NA,NA,NA,NA,NA,NA,NA,NA,NA,NA,NA,NA,NA,NA,NA,NA,NA,NA,NA
"9",umWStNDUdE1QtbnPjPCfwg,TRUE,Urbana,4,Fairfield Automotive,character(0),-88.196084,IL,5,40.11105,business,17:00,08:00,17:00,08:00,17:00,08:00,17:00,08:00,17:00,08:00,NA,NA,NA,NA,NA,NA,NA,NA,NA,NA,NA,NA,NA,NA,NA,NA,NA,NA,NA,NA,NA,NA,NA,NA,NA,NA,NA,NA,NA,NA,NA,NA,NA,NA,NA,NA,NA,NA,NA,NA,NA,NA,NA,NA,NA,NA,NA,NA,NA,NA,NA,NA,NA,NA,NA,NA,NA,NA,NA,NA,NA,NA,NA,NA,NA,NA,NA,NA,NA,NA,NA,NA,NA,NA,NA
"10",5UvM_u7V4x2pQrsuzPdA_g,FALSE,Urbana,4,Bagelmen's Inc,character(0),-88.203507,IL,4,40.110569,business,NA,NA,NA,NA,NA,NA,NA,NA,NA,NA,NA,NA,NA,NA,NA,NA,NA,NA,NA,NA,NA,NA,NA,NA,NA,NA,NA,NA,NA,NA,NA,NA,NA,NA,NA,NA,NA,NA,NA,NA,NA,NA,NA,NA,NA,NA,NA,NA,NA,NA,NA,NA,NA,NA,NA,NA,NA,NA,NA,NA,NA,NA,NA,NA,NA,NA,NA,NA,NA,NA,NA,NA,NA,NA,NA,NA,NA,NA,NA,NA,NA,NA,NA,NA,NA
"11",CyS-v4frMGcXeDIl2sZtqQ,TRUE,Urbana,5,Domino's Pizza,character(0),-88.2004115,IL,3,40.1242205,business,02:00,10:00,01:00,10:00,01:00,10:00,01:00,10:00,01:00,10:00,02:00,10:00,01:00,10:00,NA,NA,NA,NA,NA,TRUE,NA,FALSE,NA,NA,FALSE,TRUE,NA,NA,2,NA,NA,NA,NA,NA,NA,NA,NA,NA,NA,NA,NA,NA,NA,NA,NA,NA,NA,NA,NA,NA,NA,NA,NA,NA,NA,NA,NA,NA,NA,NA,NA,NA,NA,NA,NA,NA,NA,NA,NA,NA,NA,NA,NA,NA,NA,NA,NA,NA,NA,NA,NA,NA,NA,NA,NA
"12",QWMwvT3voF9af9bZEwYj1A,FALSE,Urbana,14,Pro Nails,character(0),-88.1906486,IL,4,40.0930313,business,18:00,10:00,18:00,10:00,18:00,10:00,18:00,10:00,NA,NA,18:00,10:00,16:00,11:00,NA,NA,NA,NA,NA,NA,NA,NA,NA,NA,NA,TRUE,NA,NA,1,NA,NA,NA,NA,NA,NA,NA,NA,NA,NA,NA,FALSE,NA,NA,NA,NA,NA,NA,NA,NA,NA,NA,NA,NA,NA,NA,NA,NA,NA,NA,FALSE,FALSE,FALSE,TRUE,FALSE,NA,NA,NA,NA,NA,NA,NA,NA,NA,NA,NA,NA,NA,NA,NA,NA,NA,NA,NA,NA,NA
"13",0h0CK1TUmQ28D67KIqDjDw,TRUE,Urbana,5,County Market Discount Foods,character(0),-88.1930909,IL,2,40.0952257,business,NA,NA,NA,NA,NA,NA,NA,NA,NA,NA,NA,NA,NA,NA,NA,NA,NA,NA,NA,FALSE,NA,NA,NA,NA,NA,TRUE,NA,NA,2,NA,NA,NA,NA,NA,TRUE,NA,NA,NA,NA,NA,NA,NA,NA,NA,NA,NA,NA,NA,NA,NA,NA,NA,NA,NA,NA,NA,NA,NA,NA,FALSE,FALSE,FALSE,TRUE,FALSE,NA,NA,NA,NA,NA,NA,NA,NA,NA,NA,NA,NA,NA,NA,NA,NA,NA,NA,NA,NA,NA
"14",vXxsDHzRvQEhK6YbNs3Nww,TRUE,Urbana,12,Meineke Car Care Center,character(0),-88.2025,IL,3.5,40.11993,business,18:00,07:30,18:00,07:30,18:00,07:30,18:00,07:30,18:00,07:30,18:00,07:30,NA,NA,NA,NA,NA,NA,NA,NA,NA,NA,NA,NA,NA,TRUE,NA,NA,NA,NA,NA,NA,NA,NA,NA,NA,NA,NA,NA,NA,NA,NA,NA,NA,NA,NA,NA,NA,NA,NA,NA,NA,NA,NA,NA,NA,NA,NA,NA,NA,NA,NA,NA,NA,NA,NA,NA,NA,NA,NA,NA,NA,NA,NA,NA,NA,NA,NA,NA,NA,NA,NA,NA,NA,NA
"15",0kRBRm5xOWclzemsLl9iQA,TRUE,Urbana,75,Hickory River Smokehouse,character(0),-88.197784,IL,3.5,40.128807,business,21:00,10:30,21:00,10:30,21:00,10:30,21:00,10:30,21:00,10:30,21:00,10:30,20:00,11:00,TRUE,NA,TRUE,average,FALSE,FALSE,TRUE,FALSE,casual,beer_and_wine,FALSE,TRUE,TRUE,TRUE,1,NA,NA,NA,NA,no,TRUE,NA,FALSE,FALSE,yes_free,NA,NA,NA,NA,NA,FALSE,FALSE,TRUE,FALSE,FALSE,FALSE,FALSE,FALSE,FALSE,FALSE,FALSE,FALSE,FALSE,FALSE,TRUE,FALSE,FALSE,FALSE,TRUE,FALSE,NA,NA,NA,NA,NA,NA,NA,NA,NA,NA,NA,NA,NA,NA,NA,NA,NA,NA,NA,NA,NA
"16",1S07OVrtlA53CACci5jWgQ,TRUE,Urbana,17,Schnucks - Urbana,character(0),-88.2029151,IL,3.5,40.1139865,business,00:00,00:00,00:00,00:00,00:00,00:00,00:00,00:00,00:00,00:00,00:00,00:00,00:00,00:00,NA,NA,NA,NA,NA,NA,NA,NA,NA,NA,NA,TRUE,NA,NA,2,NA,NA,NA,NA,NA,TRUE,NA,NA,NA,NA,NA,NA,NA,NA,NA,NA,NA,NA,NA,NA,NA,NA,NA,NA,NA,NA,NA,NA,NA,NA,FALSE,FALSE,FALSE,TRUE,FALSE,NA,NA,NA,NA,NA,NA,NA,NA,NA,NA,NA,NA,NA,NA,NA,NA,NA,NA,NA,NA,NA
"17",G-ULv_-GLBldesa-IIPlqA,TRUE,Urbana,4,US Post Office,character(0),-88.1637165,IL,2,40.1113451,business,NA,NA,NA,NA,NA,NA,NA,NA,NA,NA,NA,NA,NA,NA,NA,NA,NA,NA,NA,NA,NA,NA,NA,NA,NA,NA,NA,NA,NA,NA,NA,NA,NA,NA,NA,NA,NA,NA,NA,NA,NA,NA,NA,NA,NA,NA,NA,NA,NA,NA,NA,NA,NA,NA,NA,NA,NA,NA,NA,NA,NA,NA,NA,NA,NA,NA,NA,NA,NA,NA,NA,NA,NA,NA,NA,NA,NA,NA,NA,NA,NA,NA,NA,NA,NA
"18",7ICHhzV20NHITwLwaVWsQg,FALSE,Urbana,4,Corkscrew Wine Emporium,character(0),-88.2053424,IL,4,40.1138007,business,22:00,11:00,20:00,11:00,22:00,11:00,20:00,11:00,20:00,11:00,22:00,11:00,17:00,12:00,NA,NA,NA,NA,NA,NA,NA,NA,NA,NA,NA,TRUE,NA,NA,2,NA,NA,NA,NA,NA,TRUE,NA,NA,NA,NA,NA,NA,NA,NA,NA,NA,NA,NA,NA,NA,NA,NA,NA,NA,NA,NA,NA,NA,NA,NA,FALSE,FALSE,FALSE,TRUE,FALSE,NA,NA,NA,NA,NA,NA,NA,NA,NA,NA,NA,NA,NA,NA,NA,NA,NA,NA,NA,NA,NA
"19",O-xojjHJsvug_o8ssvO4uQ,TRUE,Urbana,4,TJ's Laundry & Dry Cleaning,character(0),-88.199349,IL,3.5,40.125897,business,21:00,07:00,21:00,07:00,21:00,07:00,21:00,07:00,21:00,07:00,21:00,07:00,21:00,07:00,NA,NA,NA,NA,NA,NA,NA,NA,NA,NA,NA,NA,NA,NA,2,NA,NA,NA,NA,NA,NA,NA,NA,NA,NA,NA,NA,NA,NA,NA,NA,NA,NA,NA,NA,NA,NA,NA,NA,NA,NA,NA,NA,NA,NA,FALSE,FALSE,FALSE,FALSE,FALSE,NA,NA,NA,NA,NA,NA,NA,NA,NA,NA,NA,NA,NA,NA,NA,NA,NA,NA,NA,NA,NA
"20",Gf9HbiraKNZpxbxwScHBVw,TRUE,Urbana,28,The Apple Dumplin',character(0),-88.1625332782138,IL,3.5,40.1336703544176,business,20:00,07:00,20:00,07:00,20:00,07:00,20:00,07:00,NA,NA,20:00,07:00,15:00,11:00,TRUE,NA,TRUE,average,FALSE,FALSE,FALSE,FALSE,casual,none,TRUE,TRUE,TRUE,TRUE,1,NA,NA,NA,NA,no,TRUE,NA,NA,NA,NA,NA,NA,NA,NA,NA,FALSE,FALSE,TRUE,FALSE,FALSE,TRUE,FALSE,FALSE,FALSE,FALSE,FALSE,FALSE,FALSE,FALSE,TRUE,FALSE,FALSE,FALSE,TRUE,FALSE,NA,NA,NA,NA,NA,NA,NA,NA,NA,NA,NA,NA,NA,NA,NA,NA,NA,NA,NA,NA,NA
"21",d9dbAhETeCCk1gOmRsAW9Q,TRUE,Urbana,12,Motel 6,character(0),-88.1962867,IL,1.5,40.1305062,business,NA,NA,NA,NA,NA,NA,NA,NA,NA,NA,NA,NA,NA,NA,NA,NA,NA,NA,NA,NA,NA,NA,NA,NA,NA,TRUE,NA,NA,1,NA,NA,NA,NA,free,NA,NA,NA,NA,NA,NA,NA,NA,NA,NA,NA,NA,NA,NA,NA,NA,NA,NA,NA,NA,NA,NA,NA,NA,NA,NA,NA,NA,NA,NA,NA,NA,NA,NA,NA,NA,NA,NA,NA,NA,NA,NA,NA,NA,NA,NA,NA,NA,NA,NA,NA
"22",9wAPwDJJlvaWQVF56fYEfQ,FALSE,Urbana,3,Wingstop,character(0),-88.2030657,IL,4.5,40.1134471,business,NA,NA,NA,NA,NA,NA,NA,NA,NA,NA,NA,NA,NA,NA,TRUE,NA,NA,NA,FALSE,NA,NA,FALSE,casual,NA,FALSE,TRUE,TRUE,FALSE,1,NA,NA,NA,NA,NA,NA,NA,NA,NA,NA,NA,NA,NA,NA,NA,FALSE,FALSE,FALSE,FALSE,FALSE,FALSE,NA,NA,NA,NA,NA,NA,NA,NA,NA,FALSE,FALSE,FALSE,FALSE,FALSE,NA,NA,NA,NA,NA,NA,NA,NA,NA,NA,NA,NA,NA,NA,NA,NA,NA,NA,NA,NA,NA
"23",DWZ1_iy-cTeehK5FTiqH-g,TRUE,Urbana,10,Steak 'n Shake,character(0),-88.198592,IL,1.5,40.133231,business,00:00,00:00,00:00,00:00,00:00,00:00,00:00,00:00,00:00,00:00,00:00,00:00,00:00,00:00,TRUE,TRUE,NA,average,FALSE,FALSE,NA,FALSE,casual,NA,NA,TRUE,TRUE,TRUE,1,NA,NA,NA,NA,NA,NA,NA,NA,NA,NA,NA,NA,NA,NA,NA,FALSE,FALSE,TRUE,FALSE,FALSE,FALSE,NA,NA,NA,NA,NA,NA,NA,NA,NA,NA,NA,NA,NA,NA,NA,NA,NA,NA,NA,NA,NA,NA,NA,NA,NA,NA,NA,NA,NA,NA,NA,NA,NA,NA,NA
"24",j5EEOKd7VAXv4Jxdxi9qgA,TRUE,Urbana,4,A To Z Appliance Repair,character(0),-88.1976634,IL,5,40.113679,business,17:00,08:00,17:00,08:00,17:00,08:00,17:00,08:00,17:00,08:00,NA,NA,NA,NA,NA,NA,NA,NA,NA,NA,NA,NA,NA,NA,NA,NA,NA,NA,2,NA,NA,NA,NA,NA,NA,NA,NA,NA,NA,NA,NA,NA,NA,NA,NA,NA,NA,NA,NA,NA,NA,NA,NA,NA,NA,NA,NA,NA,NA,NA,NA,NA,NA,NA,NA,NA,NA,NA,NA,NA,NA,NA,NA,NA,NA,NA,NA,NA,NA,NA,NA,NA,NA,NA,NA
"25",vubRS4bmJ_8yXpn-67wNZA,TRUE,Urbana,25,First Wok,character(0),-88.1920978,IL,4,40.0962948,business,NA,NA,NA,NA,NA,NA,NA,NA,NA,NA,NA,NA,NA,NA,TRUE,NA,FALSE,average,FALSE,FALSE,FALSE,FALSE,casual,none,FALSE,TRUE,TRUE,FALSE,1,NA,NA,NA,NA,no,TRUE,NA,NA,FALSE,yes_free,NA,NA,NA,NA,NA,FALSE,FALSE,TRUE,TRUE,FALSE,FALSE,FALSE,FALSE,FALSE,FALSE,FALSE,FALSE,FALSE,FALSE,FALSE,FALSE,FALSE,FALSE,TRUE,FALSE,NA,NA,NA,NA,NA,NA,NA,NA,NA,NA,NA,NA,NA,NA,NA,NA,NA,NA,NA,NA,NA
"26",HnfKcyT3eEgkJC2SXkBe5A,TRUE,Urbana,3,Landscape Recycling Center,character(0),-88.194055,IL,5,40.115293,business,16:00,08:00,16:00,08:00,16:00,08:00,16:00,08:00,16:00,08:00,16:00,08:00,NA,NA,NA,NA,NA,NA,NA,NA,NA,NA,NA,NA,NA,NA,NA,NA,NA,NA,NA,NA,NA,NA,NA,NA,NA,NA,NA,NA,NA,NA,NA,NA,NA,NA,NA,NA,NA,NA,NA,NA,NA,NA,NA,NA,NA,NA,NA,NA,NA,NA,NA,NA,NA,NA,NA,NA,NA,NA,NA,NA,NA,NA,NA,NA,NA,NA,NA,NA,NA,NA,NA,NA,NA
"27",mv1gFZ8FYsFIOTENKhXddw,TRUE,Urbana,9,Papa Murphy's,character(0),-88.2030657,IL,3.5,40.1134471,business,NA,NA,NA,NA,NA,NA,NA,NA,NA,NA,NA,NA,NA,NA,TRUE,NA,NA,average,FALSE,FALSE,FALSE,FALSE,casual,none,FALSE,TRUE,TRUE,TRUE,1,NA,NA,NA,NA,NA,NA,NA,NA,NA,NA,NA,NA,NA,NA,NA,FALSE,FALSE,FALSE,TRUE,FALSE,FALSE,FALSE,FALSE,FALSE,FALSE,FALSE,FALSE,FALSE,FALSE,FALSE,FALSE,FALSE,FALSE,FALSE,FALSE,NA,NA,NA,NA,NA,NA,NA,NA,NA,NA,NA,NA,NA,NA,NA,NA,NA,NA,NA,NA,NA
"28",1ZMcQNF-hHL0nJSnh5_a4w,FALSE,Urbana,16,El Toro,character(0),-88.200627,IL,3.5,40.123643,business,NA,NA,NA,NA,NA,NA,NA,NA,NA,NA,NA,NA,NA,NA,TRUE,NA,NA,very_loud,FALSE,FALSE,NA,TRUE,casual,full_bar,TRUE,TRUE,TRUE,TRUE,1,NA,NA,NA,NA,NA,TRUE,NA,NA,NA,NA,NA,NA,NA,NA,NA,FALSE,FALSE,TRUE,TRUE,FALSE,FALSE,FALSE,FALSE,FALSE,FALSE,FALSE,FALSE,FALSE,FALSE,TRUE,FALSE,FALSE,FALSE,TRUE,FALSE,NA,NA,NA,NA,NA,NA,NA,NA,NA,NA,NA,NA,NA,NA,NA,NA,NA,NA,NA,NA,NA
"29",jO-ttNypCvyiirNMX0-I5w,FALSE,Urbana,3,Ned Kelly's Steakhouse,character(0),-88.199861,IL,3.5,40.128228,business,NA,NA,NA,NA,NA,NA,NA,NA,NA,NA,NA,NA,NA,NA,NA,NA,NA,NA,NA,NA,NA,NA,NA,NA,NA,NA,NA,NA,NA,NA,NA,NA,NA,NA,NA,NA,NA,NA,NA,NA,NA,NA,NA,NA,NA,NA,NA,NA,NA,NA,NA,NA,NA,NA,NA,NA,NA,NA,NA,NA,NA,NA,NA,NA,NA,NA,NA,NA,NA,NA,NA,NA,NA,NA,NA,NA,NA,NA,NA,NA,NA,NA,NA,NA,NA
"30",u-y1z3usKenHtOGrH5Vveg,TRUE,Urbana,23,Cracker Barrel Old Country Store,character(0),-88.1994841,IL,3.5,40.133434,business,23:00,06:00,22:00,06:00,22:00,06:00,22:00,06:00,22:00,06:00,23:00,06:00,22:00,06:00,TRUE,NA,FALSE,average,FALSE,FALSE,FALSE,FALSE,casual,none,TRUE,TRUE,TRUE,TRUE,2,NA,NA,NA,NA,no,TRUE,NA,NA,NA,NA,NA,NA,NA,NA,NA,FALSE,FALSE,FALSE,FALSE,TRUE,TRUE,FALSE,FALSE,FALSE,FALSE,FALSE,FALSE,FALSE,FALSE,TRUE,FALSE,FALSE,FALSE,TRUE,FALSE,NA,NA,NA,NA,NA,NA,NA,NA,NA,NA,NA,NA,NA,NA,NA,NA,NA,NA,NA,NA,NA
"31",iOnQLUbEfnSO7LUR4F87Xg,TRUE,Urbana,6,A & E Animal Hospital,character(0),-88.166931,IL,4.5,40.0835549,business,18:00,07:30,18:00,07:30,18:00,07:30,18:00,07:30,18:00,07:30,12:00,07:30,NA,NA,NA,NA,NA,NA,NA,NA,NA,NA,NA,NA,NA,NA,NA,NA,NA,NA,NA,NA,NA,NA,NA,NA,NA,NA,NA,NA,NA,NA,NA,NA,NA,NA,NA,NA,NA,NA,NA,NA,NA,NA,NA,NA,NA,NA,NA,NA,NA,NA,NA,NA,NA,NA,NA,NA,NA,NA,NA,NA,NA,NA,NA,NA,NA,NA,NA,NA,NA,NA,NA,NA,NA
"32",H8zZGpE8mNlqxgYXnRlSfw,TRUE,Urbana,6,Beaumont Animal Clinic,character(0),-88.199848,IL,4.5,40.125869,business,18:00,07:30,18:00,07:30,18:00,07:30,18:00,07:30,18:00,07:30,12:00,07:30,NA,NA,NA,NA,NA,NA,NA,NA,NA,NA,NA,NA,NA,NA,NA,NA,NA,NA,NA,NA,NA,NA,NA,NA,NA,NA,NA,NA,NA,NA,NA,NA,NA,NA,NA,NA,NA,NA,NA,NA,NA,NA,NA,NA,NA,NA,NA,NA,NA,NA,NA,NA,NA,NA,NA,NA,NA,NA,NA,NA,NA,NA,NA,NA,NA,NA,NA,NA,NA,NA,NA,NA,NA
"33",vA8ed8BFvQxz4HFt8cHd9Q,TRUE,Urbana,21,Blain's Farm & Fleet,character(0),-88.1937109,IL,3.5,40.140714,business,21:00,08:00,21:00,08:00,21:00,08:00,21:00,08:00,21:00,08:00,20:00,08:00,18:00,09:00,NA,NA,NA,NA,NA,NA,NA,NA,NA,NA,NA,TRUE,NA,NA,1,NA,NA,NA,NA,NA,TRUE,NA,NA,NA,NA,NA,NA,NA,NA,NA,NA,NA,NA,NA,NA,NA,NA,NA,NA,NA,NA,NA,NA,NA,NA,FALSE,FALSE,FALSE,TRUE,FALSE,NA,NA,NA,NA,NA,NA,NA,NA,NA,NA,NA,NA,NA,NA,NA,NA,NA,NA,NA,NA,NA
"34",l5TaI4-XsF5FQYbo35x4Xg,TRUE,Urbana,3,Stone Creek Golf Club,character(0),-88.1695258,IL,4,40.0879614,business,19:45,06:00,19:45,06:00,19:45,06:00,19:45,06:00,19:45,06:00,19:45,06:00,19:45,06:00,NA,NA,NA,NA,NA,NA,NA,NA,NA,NA,NA,NA,FALSE,NA,NA,NA,NA,NA,NA,NA,NA,NA,NA,NA,NA,NA,NA,NA,NA,NA,NA,NA,NA,NA,NA,NA,NA,NA,NA,NA,NA,NA,NA,NA,NA,NA,NA,NA,NA,NA,NA,NA,NA,NA,NA,NA,NA,NA,NA,NA,NA,NA,NA,NA,NA,NA,NA,NA,NA,NA,NA
"35",bshpPwiOvUdr_m9jFfsWTA,TRUE,Urbana,4,Peter B's Automotive,character(0),-88.189929,IL,5,40.1172899,business,17:30,08:00,17:30,08:00,17:30,08:00,17:30,08:00,17:30,08:00,NA,NA,NA,NA,NA,NA,NA,NA,NA,NA,NA,NA,NA,NA,NA,NA,NA,NA,NA,NA,NA,NA,NA,NA,NA,NA,NA,NA,NA,NA,NA,NA,NA,NA,NA,NA,NA,NA,NA,NA,NA,NA,NA,NA,NA,NA,NA,NA,NA,NA,NA,NA,NA,NA,NA,NA,NA,NA,NA,NA,NA,NA,NA,NA,NA,NA,NA,NA,NA,NA,NA,NA,NA,NA,NA
"36",BH5ItzgUlz0GoYJxknV3Zg,TRUE,Urbana,6,Long's Garage,character(0),-88.2021935,IL,5,40.1123878,business,17:00,07:30,17:00,07:30,17:00,07:30,17:00,07:30,17:00,07:30,NA,NA,NA,NA,NA,NA,NA,NA,NA,NA,NA,NA,NA,NA,NA,NA,NA,NA,NA,NA,NA,NA,NA,NA,NA,NA,NA,NA,NA,NA,NA,NA,NA,NA,NA,NA,NA,NA,NA,NA,NA,NA,NA,NA,NA,NA,NA,NA,NA,NA,NA,NA,NA,NA,NA,NA,NA,NA,NA,NA,NA,NA,NA,NA,NA,NA,NA,NA,NA,NA,NA,NA,NA,NA,NA
"37",Nn2ruXgYnWWB13M-Y6qOKg,TRUE,Urbana,4,Carter's Furniture,character(0),-88.2042229,IL,2,40.1152851,business,17:30,09:30,17:30,09:30,17:30,09:30,17:30,09:30,17:30,09:30,17:00,09:30,00:00,00:00,NA,NA,NA,NA,NA,NA,NA,NA,NA,NA,NA,TRUE,NA,NA,NA,NA,NA,NA,NA,NA,NA,NA,NA,NA,NA,NA,NA,NA,NA,NA,NA,NA,NA,NA,NA,NA,NA,NA,NA,NA,NA,NA,NA,NA,NA,NA,NA,NA,NA,NA,NA,NA,NA,NA,NA,NA,NA,NA,NA,NA,NA,NA,NA,NA,NA,NA,NA,NA,NA,NA,NA
"38",Cj6W6bpGqM0Owl2LeLn1EA,TRUE,Urbana,3,Ray's Heating & Air Conditioning,character(0),-88.198621,IL,3.5,40.113315,business,17:00,08:00,17:00,08:00,17:00,08:00,17:00,08:00,17:00,08:00,NA,NA,NA,NA,NA,NA,NA,NA,NA,NA,NA,NA,NA,NA,NA,NA,NA,NA,NA,NA,NA,NA,NA,NA,NA,NA,NA,NA,NA,NA,NA,NA,NA,NA,NA,NA,NA,NA,NA,NA,NA,NA,NA,NA,NA,NA,NA,NA,NA,NA,NA,NA,NA,NA,NA,NA,NA,NA,NA,NA,NA,NA,NA,NA,NA,NA,NA,NA,NA,NA,NA,NA,NA,NA,NA
"39",vxFeYTFre83stnrcLAj84A,TRUE,Urbana,5,Arby's,character(0),-88.20475,IL,3.5,40.117801,business,NA,NA,NA,NA,NA,NA,NA,NA,NA,NA,NA,NA,NA,NA,TRUE,TRUE,NA,NA,FALSE,FALSE,NA,FALSE,casual,NA,NA,TRUE,TRUE,TRUE,1,NA,NA,NA,NA,NA,NA,NA,NA,NA,NA,NA,NA,NA,NA,NA,NA,NA,NA,NA,NA,NA,NA,NA,NA,NA,NA,NA,NA,NA,NA,NA,NA,NA,NA,NA,NA,NA,NA,NA,NA,NA,NA,NA,NA,NA,NA,NA,NA,NA,NA,NA,NA,NA,NA,NA,NA
"40",yTlW8Xh1wPpvHBl3dGz9mA,TRUE,Urbana,25,Monical's Pizza,character(0),-88.1905185,IL,3,40.0833818,business,23:00,11:00,22:30,11:00,22:30,11:00,22:30,11:00,22:30,11:00,23:00,11:00,22:30,11:00,TRUE,NA,TRUE,average,TRUE,TRUE,FALSE,FALSE,casual,beer_and_wine,TRUE,TRUE,TRUE,TRUE,2,NA,NA,NA,NA,free,TRUE,NA,NA,NA,NA,NA,NA,NA,NA,NA,FALSE,FALSE,FALSE,TRUE,FALSE,FALSE,FALSE,FALSE,FALSE,FALSE,FALSE,FALSE,FALSE,FALSE,FALSE,FALSE,FALSE,FALSE,TRUE,FALSE,NA,NA,NA,NA,NA,NA,NA,NA,NA,NA,NA,NA,NA,NA,NA,NA,NA,NA,NA,NA,NA
"41",BSkvsCY2RFMcmx1TfBf5oQ,TRUE,Urbana,3,United Fuel,character(0),-88.1975314,IL,3,40.129272,business,NA,NA,NA,NA,NA,NA,NA,NA,NA,NA,NA,NA,NA,NA,NA,NA,NA,NA,NA,NA,NA,NA,NA,NA,NA,NA,NA,NA,NA,NA,NA,NA,NA,NA,NA,NA,NA,NA,NA,NA,NA,NA,NA,NA,NA,NA,NA,NA,NA,NA,NA,NA,NA,NA,NA,NA,NA,NA,NA,NA,NA,NA,NA,NA,NA,NA,NA,NA,NA,NA,NA,NA,NA,NA,NA,NA,NA,NA,NA,NA,NA,NA,NA,NA,NA
"42",HKN_-ZvArer9TkHF5HXEOg,TRUE,Urbana,9,Eastland Suites,character(0),-88.1981153169697,IL,3,40.1310376876166,business,00:00,00:00,00:00,00:00,00:00,00:00,00:00,00:00,00:00,00:00,00:00,00:00,00:00,00:00,NA,NA,NA,NA,NA,NA,NA,NA,NA,NA,NA,TRUE,NA,NA,3,NA,NA,NA,NA,free,NA,NA,NA,NA,NA,NA,NA,NA,NA,NA,NA,NA,NA,NA,NA,NA,NA,NA,NA,NA,NA,NA,NA,NA,NA,NA,NA,NA,NA,NA,NA,NA,NA,NA,NA,NA,NA,NA,NA,NA,NA,NA,NA,NA,NA,NA,NA,NA,NA,NA,NA
"43",iUT5YfK0CzfPHuFbJuO_3A,TRUE,Urbana,17,Blossom Basket Florist,character(0),-88.201408,IL,4.5,40.122183,business,18:00,08:00,18:00,08:00,18:00,08:00,18:00,08:00,18:00,08:00,17:00,08:00,NA,NA,NA,NA,NA,NA,NA,TRUE,NA,NA,NA,NA,NA,TRUE,NA,NA,3,NA,NA,NA,NA,NA,TRUE,NA,NA,NA,NA,NA,NA,NA,NA,NA,NA,NA,NA,NA,NA,NA,NA,NA,NA,NA,NA,NA,NA,NA,NA,FALSE,TRUE,FALSE,FALSE,FALSE,NA,NA,NA,NA,NA,NA,NA,NA,NA,NA,NA,NA,NA,NA,NA,NA,NA,NA,NA,NA,NA
"44",X9lUz008RWP6D0RjnQ_uVg,TRUE,Urbana,4,Carle Medical Supply,character(0),-88.1996768,IL,3,40.1248447,business,NA,NA,NA,NA,NA,NA,NA,NA,NA,NA,NA,NA,NA,NA,NA,NA,NA,NA,NA,NA,NA,NA,NA,NA,NA,NA,NA,NA,1,NA,NA,NA,NA,NA,NA,NA,NA,NA,NA,NA,NA,NA,NA,NA,NA,NA,NA,NA,NA,NA,NA,NA,NA,NA,NA,NA,NA,NA,NA,NA,NA,NA,NA,NA,NA,NA,NA,NA,NA,NA,NA,NA,NA,NA,NA,NA,NA,NA,NA,NA,NA,NA,NA,NA,NA
"45",xFoOS3bg_8T5zFFtd0TFXQ,TRUE,Urbana,10,Champaign-Urbana Mass Transit District,character(0),-88.195252,IL,4,40.115404,business,NA,NA,NA,NA,NA,NA,NA,NA,NA,NA,NA,NA,NA,NA,NA,NA,NA,NA,NA,NA,NA,NA,NA,NA,NA,NA,NA,NA,NA,NA,NA,NA,NA,NA,NA,NA,NA,NA,NA,NA,NA,NA,NA,NA,NA,NA,NA,NA,NA,NA,NA,NA,NA,NA,NA,NA,NA,NA,NA,NA,NA,NA,NA,NA,NA,NA,NA,NA,NA,NA,NA,NA,NA,NA,NA,NA,NA,NA,NA,NA,NA,NA,NA,NA,NA
"46",SQASst3NU4tA-t4cmWLILA,TRUE,Champaign,9,Subway,character(0),-88.2296109,IL,2.5,40.1105931,business,NA,NA,NA,NA,NA,NA,NA,NA,NA,NA,NA,NA,NA,NA,TRUE,NA,FALSE,loud,FALSE,FALSE,FALSE,TRUE,casual,none,FALSE,TRUE,TRUE,TRUE,1,NA,NA,NA,NA,no,NA,NA,FALSE,NA,no,NA,NA,NA,NA,NA,FALSE,FALSE,FALSE,FALSE,FALSE,FALSE,FALSE,FALSE,FALSE,FALSE,FALSE,FALSE,FALSE,FALSE,FALSE,NA,NA,NA,NA,NA,NA,NA,NA,NA,NA,NA,NA,NA,NA,NA,NA,NA,NA,NA,NA,NA,NA,NA,NA,NA,NA
"47",zTSeyVj-yrhBO_4ECJYUxQ,TRUE,Champaign,20,Red Hair,character(0),-88.2304604,IL,3.5,40.1094534,business,NA,NA,NA,NA,NA,NA,NA,NA,NA,NA,NA,NA,NA,NA,NA,NA,NA,NA,NA,NA,NA,NA,NA,NA,NA,TRUE,TRUE,NA,2,NA,NA,NA,NA,NA,NA,NA,NA,NA,NA,NA,TRUE,NA,NA,NA,NA,NA,NA,NA,NA,NA,NA,NA,NA,NA,NA,NA,NA,NA,NA,FALSE,TRUE,FALSE,FALSE,FALSE,NA,NA,NA,NA,NA,NA,NA,NA,NA,NA,NA,NA,NA,NA,NA,NA,NA,NA,NA,NA,NA
"48",kQIa72d-V_MuklkrDig3Mg,FALSE,Champaign,3,Rocks,character(0),-88.241292,IL,3.5,40.112114,business,NA,NA,NA,NA,NA,NA,NA,NA,NA,NA,NA,NA,NA,NA,TRUE,NA,NA,NA,TRUE,NA,NA,TRUE,casual,full_bar,TRUE,TRUE,FALSE,TRUE,1,NA,NA,NA,NA,NA,TRUE,NA,NA,NA,NA,NA,NA,NA,NA,NA,FALSE,FALSE,FALSE,FALSE,FALSE,FALSE,NA,NA,NA,NA,NA,NA,NA,NA,NA,FALSE,FALSE,FALSE,FALSE,FALSE,NA,NA,NA,NA,NA,NA,NA,NA,NA,NA,NA,NA,NA,NA,NA,NA,NA,NA,NA,NA,NA
"49",3FAaEsYznpJoo0fOA1yuBg,TRUE,Champaign,12,Planned Parenthood,character(0),-88.235132,IL,3.5,40.113724,business,15:00,08:00,NA,NA,18:00,12:00,18:00,12:00,16:00,09:00,NA,NA,NA,NA,NA,NA,NA,NA,NA,NA,NA,NA,NA,NA,NA,NA,NA,NA,NA,NA,NA,NA,NA,NA,NA,NA,NA,NA,NA,NA,FALSE,TRUE,NA,NA,NA,NA,NA,NA,NA,NA,NA,NA,NA,NA,NA,NA,NA,NA,NA,NA,NA,NA,NA,NA,NA,NA,NA,NA,NA,NA,NA,NA,NA,NA,NA,NA,NA,NA,NA,NA,NA,NA,NA,NA,NA
"50",a1CduvjSstYrmSUoaOHYTQ,TRUE,Champaign,53,University of Illinois,character(0),-88.2302994,IL,4,40.1126867,business,NA,NA,NA,NA,NA,NA,NA,NA,NA,NA,NA,NA,NA,NA,NA,NA,NA,NA,NA,NA,NA,NA,NA,NA,NA,NA,NA,NA,NA,NA,NA,NA,NA,NA,NA,NA,NA,NA,NA,NA,NA,NA,NA,NA,NA,NA,NA,NA,NA,NA,NA,NA,NA,NA,NA,NA,NA,NA,NA,NA,NA,NA,NA,NA,NA,NA,NA,NA,NA,NA,NA,NA,NA,NA,NA,NA,NA,NA,NA,NA,NA,NA,NA,NA,NA
"51",fHZmrq8vkW3_ot0-1fhMPg,TRUE,Champaign,10,Krannert Art Museum,character(0),-88.2317371,IL,4.5,40.101862,business,NA,NA,NA,NA,NA,NA,NA,NA,NA,NA,NA,NA,NA,NA,NA,NA,NA,NA,NA,NA,NA,NA,NA,NA,NA,NA,TRUE,NA,NA,NA,NA,NA,NA,NA,NA,NA,NA,NA,NA,NA,NA,NA,NA,NA,NA,NA,NA,NA,NA,NA,NA,NA,NA,NA,NA,NA,NA,NA,NA,NA,NA,NA,NA,NA,NA,NA,NA,NA,NA,NA,NA,NA,NA,NA,NA,NA,NA,NA,NA,NA,NA,NA,NA,NA,NA
"52",PBigJygtmkRa-b2QIR8JDg,TRUE,Champaign,8,April's Florist,character(0),-88.230699,IL,4.5,40.109259,business,17:30,09:00,17:30,09:00,17:30,09:00,17:30,09:00,17:30,09:00,12:00,09:00,NA,NA,NA,NA,NA,NA,NA,TRUE,NA,NA,NA,NA,NA,TRUE,NA,NA,2,NA,NA,NA,NA,NA,NA,NA,NA,NA,NA,NA,NA,NA,NA,NA,NA,NA,NA,NA,NA,NA,NA,NA,NA,NA,NA,NA,NA,NA,NA,FALSE,FALSE,FALSE,FALSE,FALSE,NA,NA,NA,NA,NA,NA,NA,NA,NA,NA,NA,NA,NA,NA,NA,NA,NA,NA,NA,NA,NA
"53",6M1F5AECDtWff1Tu3uLEWA,TRUE,Champaign,39,Empire Chinese Restaurant,character(0),-88.232373,IL,3.5,40.110554,business,22:30,11:00,22:30,11:00,22:30,11:00,22:30,11:00,22:30,11:00,22:30,11:00,22:30,11:00,TRUE,NA,NA,average,FALSE,TRUE,FALSE,FALSE,casual,none,FALSE,TRUE,TRUE,TRUE,1,NA,NA,NA,NA,no,TRUE,NA,NA,FALSE,yes_free,NA,NA,NA,NA,NA,FALSE,FALSE,TRUE,FALSE,FALSE,FALSE,FALSE,FALSE,FALSE,FALSE,FALSE,FALSE,FALSE,FALSE,TRUE,FALSE,TRUE,FALSE,FALSE,FALSE,NA,NA,NA,NA,NA,NA,NA,NA,NA,NA,NA,NA,NA,NA,NA,NA,NA,NA,NA,NA,NA
"54",40KhR3J9snVooFfTdc-8ZQ,TRUE,Champaign,28,Espresso Royale,character(0),-88.230208,IL,3,40.1080874,business,00:00,07:00,00:00,07:00,00:00,07:00,00:00,07:00,00:00,07:00,00:00,07:00,00:00,07:00,TRUE,NA,NA,NA,NA,NA,NA,TRUE,NA,NA,NA,TRUE,NA,NA,1,NA,NA,NA,NA,free,TRUE,NA,NA,NA,NA,NA,NA,NA,NA,NA,NA,NA,NA,NA,NA,NA,NA,NA,NA,NA,NA,NA,NA,NA,NA,FALSE,TRUE,FALSE,FALSE,FALSE,NA,NA,NA,NA,NA,NA,NA,NA,NA,NA,NA,NA,NA,NA,NA,NA,NA,NA,NA,NA,NA
"55",ZW0ddYK2hVbnMfm6LQiprQ,TRUE,Champaign,7,Roland Realty,character(0),-88.239062,IL,3.5,40.10769,business,17:00,09:00,17:00,09:00,17:00,09:00,17:00,09:00,17:00,09:00,16:00,00:00,NA,NA,NA,NA,NA,NA,NA,NA,NA,NA,NA,NA,NA,TRUE,NA,NA,NA,NA,NA,NA,NA,NA,NA,NA,NA,NA,NA,NA,NA,NA,NA,NA,NA,NA,NA,NA,NA,NA,NA,NA,NA,NA,NA,NA,NA,NA,NA,NA,NA,NA,NA,NA,NA,NA,NA,NA,NA,NA,NA,NA,NA,NA,NA,NA,NA,NA,NA,NA,NA,NA,NA,NA,NA
"56",CSz3N4vSxbMZi1O2EXeKbQ,TRUE,Champaign,18,Dazzling Nails,character(0),-88.2408694,IL,3.5,40.110208,business,20:00,10:00,20:00,10:00,20:00,10:00,20:00,10:00,20:00,10:00,18:00,10:00,17:00,12:00,NA,NA,NA,NA,NA,NA,NA,NA,NA,NA,NA,TRUE,NA,NA,1,NA,NA,NA,NA,NA,TRUE,NA,NA,NA,NA,NA,FALSE,NA,NA,NA,NA,NA,NA,NA,NA,NA,NA,NA,NA,NA,NA,NA,NA,NA,NA,FALSE,FALSE,FALSE,TRUE,FALSE,NA,NA,NA,NA,NA,NA,NA,NA,NA,NA,NA,NA,NA,NA,NA,NA,NA,NA,NA,NA,NA
"57",f8APgnUTwKFaQFcOcy1zyg,TRUE,Champaign,6,Bergner's,character(0),-88.2451191,IL,2.5,40.1423318,business,22:00,09:00,21:00,09:00,21:00,10:00,21:00,09:00,21:00,10:00,22:00,09:00,19:00,11:00,NA,NA,NA,NA,NA,NA,NA,NA,NA,NA,NA,TRUE,NA,NA,2,NA,NA,NA,NA,NA,NA,NA,NA,NA,NA,NA,NA,NA,NA,NA,NA,NA,NA,NA,NA,NA,NA,NA,NA,NA,NA,NA,NA,NA,NA,FALSE,FALSE,FALSE,TRUE,FALSE,NA,NA,NA,NA,NA,NA,NA,NA,NA,NA,NA,NA,NA,NA,NA,NA,NA,NA,NA,NA,NA
"58",2Y-cPfSWuxt3C2z0aXS3yw,TRUE,Champaign,3,The Beach - Sun and Spa,character(0),-88.2315641,IL,3.5,40.1092381,business,19:00,09:00,19:00,09:00,19:00,09:00,19:00,09:00,NA,NA,NA,NA,NA,NA,NA,NA,NA,NA,NA,NA,NA,NA,NA,NA,NA,TRUE,NA,NA,2,NA,NA,NA,NA,NA,TRUE,NA,NA,NA,NA,NA,FALSE,NA,NA,NA,NA,NA,NA,NA,NA,NA,NA,NA,NA,NA,NA,NA,NA,NA,NA,FALSE,TRUE,FALSE,FALSE,FALSE,NA,NA,NA,NA,NA,NA,NA,NA,NA,NA,NA,NA,NA,NA,NA,NA,NA,NA,NA,NA,NA
"59",OasJ_Jq4cUEHvWLa7UoQzQ,TRUE,Champaign,19,U-Haul Moving & Storage at University Ave,character(0),-88.23472,IL,1.5,40.116631,business,20:00,07:00,19:00,07:00,19:00,07:00,19:00,07:00,19:00,07:00,19:00,07:00,17:00,09:00,NA,NA,NA,NA,NA,NA,NA,NA,NA,NA,NA,TRUE,NA,NA,NA,NA,NA,NA,NA,NA,NA,NA,NA,NA,NA,NA,NA,NA,NA,NA,NA,NA,NA,NA,NA,NA,NA,NA,NA,NA,NA,NA,NA,NA,NA,NA,NA,NA,NA,NA,NA,NA,NA,NA,NA,NA,NA,NA,NA,NA,NA,NA,NA,NA,NA,NA,NA,NA,NA,NA,NA
"60",Uw1DZhEtTmLzMcXmdpR8Pw,FALSE,Champaign,19,Silver Mine Subs,character(0),-88.229693,IL,3.5,40.108174,business,03:00,07:00,03:00,07:00,03:00,07:00,03:00,07:00,03:00,07:00,03:00,07:00,03:00,07:00,TRUE,NA,TRUE,quiet,FALSE,TRUE,FALSE,FALSE,casual,none,FALSE,TRUE,TRUE,TRUE,1,NA,NA,NA,NA,free,NA,NA,NA,NA,NA,NA,NA,NA,NA,NA,FALSE,FALSE,TRUE,FALSE,FALSE,FALSE,FALSE,FALSE,FALSE,FALSE,FALSE,FALSE,FALSE,NA,TRUE,FALSE,FALSE,FALSE,FALSE,FALSE,NA,NA,NA,NA,NA,NA,NA,NA,NA,NA,NA,NA,NA,NA,NA,NA,NA,NA,NA,NA,NA
"61",RcHfSp2qCW8DFwpmpuNv4A,TRUE,Champaign,27,Brothers Bar & Grill,character(0),-88.2296913,IL,3,40.1100823,business,02:00,19:00,02:00,19:00,02:00,19:00,02:00,19:00,02:00,19:00,02:00,19:00,NA,NA,NA,NA,NA,very_loud,FALSE,NA,TRUE,FALSE,NA,full_bar,NA,TRUE,NA,TRUE,1,TRUE,FALSE,FALSE,no,NA,FALSE,NA,NA,NA,NA,NA,NA,NA,NA,18plus,NA,NA,NA,NA,NA,NA,FALSE,FALSE,FALSE,FALSE,FALSE,FALSE,FALSE,FALSE,FALSE,FALSE,TRUE,FALSE,FALSE,FALSE,TRUE,NA,FALSE,FALSE,FALSE,NA,NA,NA,NA,NA,NA,NA,NA,NA,NA,NA,NA,NA,NA,NA,NA
"62",J8-yMQ6sQJEWxEwczBW_Rg,TRUE,Champaign,3,Gameday Spirit,character(0),-88.230618,IL,3.5,40.110056,business,19:00,09:00,19:00,09:00,19:00,09:00,19:00,09:00,19:00,09:00,19:00,09:00,19:00,10:00,NA,NA,NA,NA,NA,NA,NA,NA,NA,NA,NA,TRUE,NA,NA,2,NA,NA,NA,NA,NA,TRUE,NA,NA,NA,NA,NA,NA,NA,NA,NA,NA,NA,NA,NA,NA,NA,NA,NA,NA,NA,NA,NA,NA,NA,NA,FALSE,TRUE,FALSE,FALSE,FALSE,NA,NA,NA,NA,NA,NA,NA,NA,NA,NA,NA,NA,NA,NA,NA,NA,NA,NA,NA,NA,NA
"63",BeLcR_j30FiNj70osGXOVw,TRUE,Urbana,11,Illini Union,character(0),-88.227207813792,IL,4.5,40.109760744757,business,NA,NA,NA,NA,NA,NA,NA,NA,NA,NA,NA,NA,NA,NA,NA,NA,NA,NA,NA,NA,NA,NA,NA,NA,NA,TRUE,TRUE,NA,1,NA,NA,NA,NA,NA,TRUE,NA,NA,NA,NA,NA,NA,NA,NA,NA,NA,NA,NA,NA,NA,NA,NA,NA,NA,NA,NA,NA,NA,NA,NA,FALSE,FALSE,FALSE,FALSE,FALSE,NA,NA,NA,NA,NA,NA,NA,NA,NA,NA,NA,NA,NA,NA,NA,NA,NA,NA,NA,NA,NA
"64",tggufZd_TQlmg-oM0HXVjw,TRUE,Champaign,3,Daily Illini,character(0),-88.2314522,IL,2,40.1105073,business,NA,NA,NA,NA,NA,NA,NA,NA,NA,NA,NA,NA,NA,NA,NA,NA,NA,NA,NA,NA,NA,NA,NA,NA,NA,NA,NA,NA,NA,NA,NA,NA,NA,NA,NA,NA,NA,NA,NA,NA,NA,NA,NA,NA,NA,NA,NA,NA,NA,NA,NA,NA,NA,NA,NA,NA,NA,NA,NA,NA,NA,NA,NA,NA,NA,NA,NA,NA,NA,NA,NA,NA,NA,NA,NA,NA,NA,NA,NA,NA,NA,NA,NA,NA,NA
"65",i_qrjn5bI0IzJ4ZnllRRhA,TRUE,Urbana,7,Reynolds Towing Service,character(0),-88.229673,IL,2.5,40.1339532,business,00:00,00:00,00:00,00:00,00:00,00:00,00:00,00:00,00:00,00:00,00:00,00:00,00:00,00:00,NA,NA,NA,NA,NA,NA,NA,NA,NA,NA,NA,TRUE,NA,NA,NA,NA,NA,NA,NA,NA,NA,NA,NA,NA,NA,NA,NA,NA,NA,NA,NA,NA,NA,NA,NA,NA,NA,NA,NA,NA,NA,NA,NA,NA,NA,NA,NA,NA,NA,NA,NA,NA,NA,NA,NA,NA,NA,NA,NA,NA,NA,NA,NA,NA,NA,NA,NA,NA,NA,NA,NA
"66",rE8048_DAh3Z8Tep466wrA,TRUE,Champaign,50,Mandarin Wok,character(0),-88.2330779,IL,3.5,40.1100319,business,NA,NA,NA,NA,NA,NA,NA,NA,NA,NA,NA,NA,NA,NA,TRUE,NA,FALSE,average,FALSE,FALSE,FALSE,FALSE,casual,none,FALSE,TRUE,TRUE,TRUE,2,NA,NA,NA,NA,no,TRUE,NA,NA,NA,NA,NA,NA,NA,NA,NA,FALSE,FALSE,TRUE,FALSE,FALSE,FALSE,FALSE,FALSE,FALSE,FALSE,FALSE,FALSE,FALSE,FALSE,TRUE,FALSE,TRUE,FALSE,FALSE,FALSE,NA,NA,NA,NA,NA,NA,NA,NA,NA,NA,NA,NA,NA,NA,NA,NA,NA,NA,NA,NA,NA
"67",bi5WD-l4DCkCEuYKOYrYtQ,TRUE,Champaign,11,Christie Clinic on University,character(0),-88.2438479,IL,2,40.1155244,business,17:00,08:00,17:00,08:00,17:00,08:00,17:00,08:00,17:00,08:00,NA,NA,NA,NA,NA,NA,NA,NA,NA,NA,NA,NA,NA,NA,NA,NA,NA,NA,NA,NA,NA,NA,NA,NA,NA,NA,NA,NA,NA,NA,TRUE,TRUE,NA,NA,NA,NA,NA,NA,NA,NA,NA,NA,NA,NA,NA,NA,NA,NA,NA,NA,NA,NA,NA,NA,NA,NA,NA,NA,NA,NA,NA,NA,NA,NA,NA,NA,NA,NA,NA,NA,NA,NA,NA,NA,NA
"68",RwhUzMEG2tVnZQY9dEuXzw,TRUE,Champaign,46,Kam's,character(0),-88.2295058,IL,2,40.1079898,business,02:00,15:00,02:00,20:00,02:00,15:00,02:00,20:00,02:00,20:00,02:00,10:00,02:00,20:00,NA,NA,FALSE,very_loud,FALSE,NA,TRUE,TRUE,formal,full_bar,FALSE,TRUE,TRUE,TRUE,1,TRUE,TRUE,FALSE,outdoor,NA,TRUE,NA,NA,NA,NA,NA,NA,NA,NA,NA,NA,NA,NA,NA,NA,NA,FALSE,FALSE,FALSE,FALSE,TRUE,FALSE,FALSE,FALSE,FALSE,FALSE,TRUE,FALSE,FALSE,FALSE,TRUE,FALSE,TRUE,FALSE,FALSE,FALSE,NA,NA,NA,NA,NA,NA,NA,NA,NA,NA,NA,NA,NA,NA,NA
"69",105yyfGnNxJPPFbdIgBHLw,TRUE,Champaign,7,The Illini Shop,character(0),-88.2305599,IL,3,40.1096976,business,18:00,10:00,18:00,10:00,18:00,10:00,18:00,10:00,18:00,10:00,18:00,10:00,17:00,12:00,NA,NA,NA,NA,NA,NA,NA,NA,NA,NA,NA,TRUE,NA,NA,2,NA,NA,NA,NA,NA,TRUE,NA,NA,NA,NA,NA,NA,NA,NA,NA,NA,NA,NA,NA,NA,NA,NA,NA,NA,NA,NA,NA,NA,NA,NA,FALSE,TRUE,FALSE,FALSE,FALSE,NA,NA,NA,NA,NA,NA,NA,NA,NA,NA,NA,NA,NA,NA,NA,NA,NA,NA,NA,NA,NA
"70",cT9uP_Lr5bz6jhIqZPlLcw,TRUE,Champaign,46,El Charro,character(0),-88.2395746,IL,4,40.1100704,business,21:00,09:00,21:00,09:00,21:00,09:00,21:00,09:00,21:00,09:00,21:00,09:00,19:00,09:00,TRUE,NA,NA,average,FALSE,TRUE,TRUE,FALSE,casual,none,TRUE,TRUE,TRUE,TRUE,1,NA,NA,NA,NA,free,TRUE,NA,FALSE,FALSE,yes_free,NA,NA,NA,NA,NA,FALSE,FALSE,TRUE,FALSE,FALSE,FALSE,FALSE,FALSE,FALSE,FALSE,FALSE,FALSE,FALSE,FALSE,TRUE,FALSE,FALSE,FALSE,TRUE,FALSE,NA,NA,NA,NA,NA,NA,NA,NA,NA,NA,NA,NA,NA,NA,NA,NA,NA,NA,NA,NA,NA
"71",AOGzysBmiU_lQAh6YVxarw,TRUE,Champaign,9,C.O. Daniel's,character(0),-88.229887,IL,2.5,40.108173,business,NA,NA,NA,NA,NA,NA,NA,NA,NA,NA,NA,NA,NA,NA,NA,NA,NA,very_loud,NA,NA,NA,NA,NA,NA,NA,NA,NA,TRUE,1,NA,NA,FALSE,no,NA,TRUE,NA,NA,NA,NA,NA,NA,NA,NA,NA,NA,NA,NA,NA,NA,NA,NA,NA,NA,NA,NA,NA,NA,NA,NA,NA,NA,NA,NA,NA,TRUE,NA,FALSE,FALSE,TRUE,NA,NA,NA,NA,NA,NA,NA,NA,NA,NA,NA,NA,NA,NA,NA,NA
"72",WuYyJjMOQ9-mYArlNWlaig,FALSE,Champaign,3,The Pita Pit,character(0),-88.229804,IL,3.5,40.110039,business,NA,NA,NA,NA,NA,NA,NA,NA,NA,NA,NA,NA,NA,NA,TRUE,NA,NA,NA,FALSE,TRUE,NA,FALSE,casual,NA,FALSE,TRUE,NA,TRUE,1,NA,NA,NA,NA,NA,TRUE,NA,FALSE,FALSE,yes_free,NA,NA,NA,NA,NA,NA,FALSE,FALSE,FALSE,NA,FALSE,NA,NA,NA,NA,NA,NA,NA,NA,NA,FALSE,TRUE,FALSE,FALSE,FALSE,NA,NA,NA,NA,NA,NA,NA,NA,NA,NA,NA,NA,NA,NA,NA,NA,NA,NA,NA,NA,NA
"73",Vi9dFbRNDO8BzXJuCdVufg,FALSE,Champaign,7,Dorcas Restaurant,character(0),-88.2330779,IL,4,40.1100319,business,NA,NA,NA,NA,NA,NA,NA,NA,NA,NA,NA,NA,NA,NA,TRUE,NA,NA,NA,FALSE,FALSE,NA,FALSE,casual,NA,FALSE,FALSE,TRUE,TRUE,1,NA,NA,NA,NA,NA,FALSE,NA,NA,FALSE,yes_free,NA,NA,NA,NA,NA,FALSE,FALSE,TRUE,FALSE,FALSE,FALSE,NA,NA,NA,NA,NA,NA,NA,NA,NA,FALSE,FALSE,FALSE,FALSE,FALSE,NA,NA,NA,NA,NA,NA,NA,NA,NA,NA,NA,NA,NA,NA,NA,NA,NA,NA,NA,NA,NA
"74",nvBLtxbaC2sDlHKbDZ_37Q,TRUE,Champaign,6,Campus Florist,character(0),-88.229918,IL,3,40.11011,business,00:00,09:00,00:00,09:00,00:00,09:00,00:00,09:00,00:00,09:00,00:00,09:00,01:00,00:00,NA,NA,NA,NA,NA,TRUE,NA,NA,NA,NA,NA,TRUE,NA,NA,2,NA,NA,NA,NA,NA,NA,NA,NA,NA,NA,NA,NA,NA,NA,NA,NA,NA,NA,NA,NA,NA,NA,NA,NA,NA,NA,NA,NA,NA,NA,FALSE,FALSE,FALSE,FALSE,FALSE,NA,NA,NA,NA,NA,NA,NA,NA,NA,NA,NA,NA,NA,NA,NA,NA,NA,NA,NA,NA,NA
"75",swQhtm-r6dK-uDbcf8CAlg,TRUE,Champaign,4,Walgreens,character(0),-88.2327276,IL,3,40.1099849,business,23:00,08:00,23:00,08:00,23:00,08:00,23:00,08:00,22:00,10:00,23:00,08:00,22:00,08:00,NA,NA,NA,NA,NA,NA,NA,NA,NA,NA,NA,TRUE,NA,NA,2,NA,NA,NA,NA,NA,NA,NA,NA,NA,NA,NA,FALSE,NA,NA,NA,NA,NA,NA,NA,NA,NA,NA,NA,NA,NA,NA,NA,NA,NA,NA,FALSE,FALSE,FALSE,FALSE,FALSE,NA,NA,NA,NA,NA,NA,NA,NA,NA,NA,NA,NA,NA,NA,NA,NA,NA,NA,NA,NA,NA
"76",UrxAu3jjRM_u6iQXDPzkSQ,TRUE,Champaign,96,Zorba's Restaurant,character(0),-88.229304,IL,4,40.110085,business,22:00,11:00,21:00,11:00,21:00,11:00,21:00,11:00,21:00,11:00,22:00,11:00,21:00,11:00,TRUE,NA,TRUE,average,FALSE,FALSE,TRUE,FALSE,casual,none,FALSE,TRUE,TRUE,TRUE,1,NA,NA,NA,NA,no,TRUE,NA,FALSE,NA,no,NA,NA,NA,NA,NA,FALSE,FALSE,TRUE,FALSE,FALSE,FALSE,FALSE,FALSE,FALSE,FALSE,FALSE,FALSE,FALSE,FALSE,TRUE,FALSE,TRUE,FALSE,FALSE,FALSE,NA,NA,NA,NA,NA,NA,NA,NA,NA,NA,NA,NA,NA,NA,NA,NA,NA,NA,NA,NA,NA
"77",1IxGmH6sn7CnUl8BVwp5hA,FALSE,Champaign,3,Garcia's Pizza In A Pan,character(0),-88.237634,IL,3.5,40.110515,business,NA,NA,NA,NA,NA,NA,NA,NA,NA,NA,NA,NA,NA,NA,NA,NA,NA,NA,NA,NA,NA,NA,NA,NA,NA,NA,NA,NA,NA,NA,NA,NA,NA,NA,NA,NA,NA,NA,NA,NA,NA,NA,NA,NA,NA,NA,NA,NA,NA,NA,NA,NA,NA,NA,NA,NA,NA,NA,NA,NA,NA,NA,NA,NA,NA,NA,NA,NA,NA,NA,NA,NA,NA,NA,NA,NA,NA,NA,NA,NA,NA,NA,NA,NA,NA
"78",zk9jN77t4q0mSmPHRwPojw,TRUE,Champaign,9,Te Shurt,character(0),-88.2295366,IL,4,40.1099093,business,17:30,10:00,17:30,10:00,17:30,10:00,17:30,10:00,17:00,10:00,17:00,10:00,NA,NA,NA,NA,NA,NA,NA,NA,NA,NA,NA,NA,NA,TRUE,NA,NA,2,NA,NA,NA,NA,NA,TRUE,TRUE,NA,NA,NA,NA,NA,NA,NA,NA,NA,NA,NA,NA,NA,NA,NA,NA,NA,NA,NA,NA,NA,NA,NA,FALSE,TRUE,FALSE,FALSE,FALSE,NA,NA,NA,NA,NA,NA,NA,NA,NA,NA,NA,NA,NA,NA,NA,NA,NA,NA,NA,NA,NA
"79",vY3jiyABOyFOaGBujou8Vg,FALSE,Champaign,64,Luna,character(0),-88.240606,IL,3,40.116715,business,22:00,17:00,22:00,17:00,22:00,17:00,22:00,17:00,22:00,17:00,22:00,17:00,14:00,10:00,TRUE,NA,NA,quiet,TRUE,FALSE,FALSE,TRUE,dressy,full_bar,TRUE,TRUE,FALSE,TRUE,2,NA,NA,NA,NA,NA,TRUE,NA,FALSE,NA,no,NA,NA,NA,NA,NA,FALSE,FALSE,FALSE,TRUE,FALSE,FALSE,TRUE,FALSE,TRUE,FALSE,FALSE,FALSE,FALSE,FALSE,FALSE,FALSE,TRUE,FALSE,FALSE,FALSE,NA,NA,NA,NA,NA,NA,NA,NA,NA,NA,NA,NA,NA,NA,NA,NA,NA,NA,NA,NA,NA
"80",1tK0k-vRgGFC3oSZNUJ58Q,TRUE,Champaign,76,Bombay Indian Grill,character(0),-88.233544,IL,3.5,40.110474,business,22:00,17:00,21:30,17:00,21:30,17:00,21:30,17:00,21:30,17:00,22:00,17:00,21:00,17:00,TRUE,NA,FALSE,average,FALSE,FALSE,FALSE,FALSE,casual,none,TRUE,TRUE,TRUE,TRUE,2,NA,NA,NA,NA,no,FALSE,NA,NA,FALSE,yes_free,NA,NA,NA,NA,NA,FALSE,FALSE,TRUE,TRUE,FALSE,FALSE,FALSE,FALSE,FALSE,FALSE,FALSE,FALSE,FALSE,FALSE,TRUE,FALSE,TRUE,FALSE,FALSE,FALSE,NA,NA,NA,NA,NA,NA,NA,NA,NA,NA,NA,NA,NA,NA,NA,NA,NA,NA,NA,NA,NA
"81",Y6jWHVbcWULr00HHYLCRyQ,TRUE,Champaign,11,Jon's Pipe Shop,character(0),-88.2308539,IL,4.5,40.110053,business,21:00,09:00,21:00,09:00,21:00,09:00,21:00,09:00,21:00,09:00,21:00,09:00,21:00,09:00,NA,NA,NA,NA,NA,NA,NA,NA,NA,NA,NA,TRUE,NA,NA,2,NA,NA,NA,NA,NA,TRUE,NA,NA,NA,NA,NA,NA,NA,NA,NA,NA,NA,NA,NA,NA,NA,NA,NA,NA,NA,NA,NA,NA,NA,NA,FALSE,TRUE,FALSE,FALSE,FALSE,NA,NA,NA,NA,NA,NA,NA,NA,NA,NA,NA,NA,NA,NA,NA,NA,NA,NA,NA,NA,NA
"82",tWDmP2CxPiIHcrcg9ZOUGA,TRUE,Champaign,5,Notes N Quotes,character(0),-88.2317452,IL,3,40.1092784,business,NA,NA,NA,NA,NA,NA,NA,NA,NA,NA,NA,NA,NA,NA,NA,NA,NA,NA,NA,NA,NA,NA,NA,NA,NA,NA,NA,NA,NA,NA,NA,NA,NA,NA,NA,NA,NA,NA,NA,NA,NA,NA,NA,NA,NA,NA,NA,NA,NA,NA,NA,NA,NA,NA,NA,NA,NA,NA,NA,NA,NA,NA,NA,NA,NA,NA,NA,NA,NA,NA,NA,NA,NA,NA,NA,NA,NA,NA,NA,NA,NA,NA,NA,NA,NA
"83",iCOvcfVRfi-f05aeqBLpKg,FALSE,Champaign,33,Geovanti's,character(0),-88.2332899,IL,3.5,40.1100246,business,04:00,11:00,03:00,11:00,03:00,11:00,03:00,11:00,03:00,11:00,04:00,11:00,03:00,11:00,TRUE,NA,NA,NA,FALSE,TRUE,NA,TRUE,casual,full_bar,FALSE,TRUE,TRUE,TRUE,1,TRUE,NA,FALSE,outdoor,NA,TRUE,NA,NA,NA,NA,NA,NA,NA,NA,NA,FALSE,TRUE,TRUE,TRUE,FALSE,FALSE,NA,NA,NA,NA,NA,NA,NA,NA,NA,FALSE,FALSE,FALSE,FALSE,FALSE,FALSE,NA,TRUE,TRUE,FALSE,NA,NA,NA,NA,NA,NA,NA,NA,NA,NA,NA,NA,NA,NA,NA,NA
"84",BP97hODPAzQvspa3NcyZPw,TRUE,Champaign,15,Illini Inn,character(0),-88.233757,IL,4,40.107661,business,NA,NA,NA,NA,NA,NA,NA,NA,NA,NA,NA,NA,NA,NA,NA,NA,NA,average,NA,NA,TRUE,FALSE,NA,full_bar,NA,TRUE,NA,TRUE,1,FALSE,FALSE,FALSE,no,NA,FALSE,NA,NA,NA,NA,NA,NA,NA,NA,NA,NA,NA,NA,NA,NA,NA,FALSE,FALSE,FALSE,FALSE,TRUE,FALSE,FALSE,FALSE,FALSE,FALSE,TRUE,FALSE,FALSE,FALSE,FALSE,NA,TRUE,FALSE,FALSE,NA,NA,NA,NA,NA,NA,NA,NA,NA,NA,NA,NA,NA,NA,NA,NA
"85",h9W_1JHeYMqtXsSthBeyDA,FALSE,Champaign,5,Other Realm,character(0),-88.2316504,IL,2.5,40.1104441,business,NA,NA,NA,NA,NA,NA,NA,NA,NA,NA,NA,NA,NA,NA,NA,NA,NA,NA,NA,NA,NA,NA,NA,NA,NA,TRUE,NA,NA,1,NA,NA,NA,NA,NA,FALSE,NA,NA,NA,NA,NA,NA,NA,NA,NA,NA,NA,NA,NA,NA,NA,NA,NA,NA,NA,NA,NA,NA,NA,NA,NA,NA,NA,NA,NA,NA,NA,NA,NA,NA,NA,NA,NA,NA,NA,NA,NA,NA,NA,NA,NA,NA,NA,NA,NA,NA
"86",j9N_fG1PVCSY-3HY1TRQ5Q,TRUE,Champaign,12,Jimmy John's,character(0),-88.2408101,IL,3.5,40.1097893,business,04:00,10:00,03:00,10:00,03:00,10:00,03:00,10:00,03:00,10:00,04:00,10:00,03:00,10:00,TRUE,NA,NA,NA,FALSE,TRUE,FALSE,FALSE,casual,none,FALSE,TRUE,TRUE,TRUE,1,NA,NA,NA,NA,NA,TRUE,NA,NA,NA,NA,NA,NA,NA,NA,NA,FALSE,FALSE,TRUE,FALSE,FALSE,FALSE,FALSE,FALSE,FALSE,FALSE,FALSE,FALSE,FALSE,FALSE,FALSE,FALSE,FALSE,FALSE,FALSE,FALSE,NA,NA,NA,NA,NA,NA,NA,NA,NA,NA,NA,NA,NA,NA,NA,NA,NA,NA,NA,NA,NA
"87",FqgotmZY0WcNjyDJh48n-w,TRUE,Urbana,10,Champaign County Humane Society,character(0),-88.1822926,IL,4,40.1111116,business,19:00,14:00,NA,NA,19:00,14:00,19:00,14:00,19:00,14:00,17:00,11:00,17:00,11:00,NA,NA,NA,NA,NA,NA,NA,NA,NA,NA,NA,NA,NA,NA,NA,NA,NA,NA,NA,NA,NA,NA,NA,NA,NA,NA,NA,NA,NA,NA,NA,NA,NA,NA,NA,NA,NA,NA,NA,NA,NA,NA,NA,NA,NA,NA,NA,NA,NA,NA,NA,NA,NA,NA,NA,NA,NA,NA,NA,NA,NA,NA,NA,NA,NA,NA,NA,NA,NA,NA,NA
"88",u06X5C_pIAVuOXOznIcPYw,TRUE,Champaign,36,Home of Gourmet Chinese & Thai Restaurant,character(0),-88.230005,IL,3.5,40.108116,business,22:00,11:00,22:00,11:00,22:00,11:00,22:00,11:00,22:00,11:00,22:00,12:00,22:00,12:00,TRUE,NA,FALSE,average,FALSE,FALSE,FALSE,FALSE,casual,none,FALSE,TRUE,FALSE,FALSE,1,NA,NA,NA,NA,no,FALSE,FALSE,FALSE,NA,no,NA,NA,NA,NA,NA,FALSE,FALSE,TRUE,FALSE,FALSE,FALSE,FALSE,FALSE,FALSE,FALSE,TRUE,FALSE,FALSE,FALSE,FALSE,FALSE,TRUE,FALSE,FALSE,FALSE,NA,NA,NA,NA,NA,NA,NA,NA,NA,NA,NA,NA,NA,NA,NA,NA,NA,NA,NA,NA,NA
"89",3lHBRYjfaMTZeWuQs9vvQw,FALSE,Champaign,13,Basil Thai Cafe,character(0),-88.232373,IL,2.5,40.110554,business,NA,NA,NA,NA,NA,NA,NA,NA,NA,NA,NA,NA,NA,NA,TRUE,NA,NA,NA,FALSE,FALSE,NA,FALSE,casual,none,FALSE,TRUE,TRUE,TRUE,1,NA,NA,NA,NA,NA,TRUE,NA,FALSE,FALSE,yes_free,NA,NA,NA,NA,NA,FALSE,FALSE,TRUE,FALSE,FALSE,FALSE,NA,NA,NA,NA,NA,NA,NA,NA,NA,FALSE,TRUE,FALSE,FALSE,FALSE,NA,NA,NA,NA,NA,NA,NA,NA,NA,NA,NA,NA,NA,NA,NA,NA,NA,NA,NA,NA,NA
"90",q-CCGjdWS5Vui7RrxyqYAA,TRUE,Champaign,4,BodyWork Associates,character(0),-88.248943,IL,4.5,40.083276,business,18:00,08:30,19:00,08:30,19:00,08:30,19:00,08:30,19:00,08:30,16:00,08:30,17:00,11:00,NA,NA,NA,NA,NA,NA,NA,NA,NA,NA,NA,TRUE,NA,NA,3,NA,NA,NA,NA,NA,NA,NA,NA,NA,NA,NA,TRUE,NA,NA,NA,NA,NA,NA,NA,NA,NA,NA,NA,NA,NA,NA,NA,NA,NA,NA,FALSE,FALSE,FALSE,FALSE,FALSE,NA,NA,NA,NA,NA,NA,NA,NA,NA,NA,NA,NA,NA,NA,NA,NA,NA,NA,NA,NA,NA
"91",deLj0wIgJYOPtyJCn8ar4w,TRUE,Champaign,9,Enterprise Rent-A-Car,character(0),-88.245199,IL,3,40.094314,business,18:00,07:30,18:00,07:30,18:00,07:30,18:00,07:30,18:00,07:30,12:00,09:00,NA,NA,NA,NA,NA,NA,NA,NA,NA,NA,NA,NA,NA,NA,NA,NA,NA,NA,NA,NA,NA,NA,NA,NA,NA,NA,NA,NA,NA,NA,NA,NA,NA,NA,NA,NA,NA,NA,NA,NA,NA,NA,NA,NA,NA,NA,NA,NA,NA,NA,NA,NA,NA,NA,NA,NA,NA,NA,NA,NA,NA,NA,NA,NA,NA,NA,NA,NA,NA,NA,NA,NA,NA
"92",ESF95kOxkCYtc2-JKYLDwA,TRUE,Champaign,9,Professional Property Management,character(0),-88.233285,IL,1.5,40.112407,business,NA,NA,NA,NA,NA,NA,NA,NA,NA,NA,NA,NA,NA,NA,NA,NA,NA,NA,NA,NA,NA,NA,NA,NA,NA,FALSE,NA,NA,NA,NA,NA,NA,NA,NA,NA,NA,NA,NA,NA,NA,NA,NA,NA,NA,NA,NA,NA,NA,NA,NA,NA,NA,NA,NA,NA,NA,NA,NA,NA,NA,NA,NA,NA,NA,NA,NA,NA,NA,NA,NA,NA,NA,NA,NA,NA,NA,NA,NA,NA,NA,NA,NA,NA,NA,NA
"93",-StiqyQX9YxKb6VYp2DRfg,TRUE,Champaign,6,Rick's Automotive Service,character(0),-88.239454,IL,4.5,40.112846,business,17:00,07:30,17:30,07:30,17:30,07:30,17:30,07:30,17:30,07:30,NA,NA,NA,NA,NA,NA,NA,NA,NA,NA,NA,NA,NA,NA,NA,NA,NA,NA,NA,NA,NA,NA,NA,NA,NA,NA,NA,NA,NA,NA,NA,NA,NA,NA,NA,NA,NA,NA,NA,NA,NA,NA,NA,NA,NA,NA,NA,NA,NA,NA,NA,NA,NA,NA,NA,NA,NA,NA,NA,NA,NA,NA,NA,NA,NA,NA,NA,NA,NA,NA,NA,NA,NA,NA,NA
"94",8EwJ8nHWByFRsC-dWBUVWQ,TRUE,Champaign,16,Jiffy Lube,character(0),-88.2457236,IL,3,40.0935474,business,NA,NA,NA,NA,NA,NA,NA,NA,NA,NA,NA,NA,NA,NA,NA,NA,NA,NA,NA,NA,NA,NA,NA,NA,NA,TRUE,NA,NA,NA,NA,NA,NA,NA,NA,NA,NA,NA,NA,NA,NA,NA,NA,NA,NA,NA,NA,NA,NA,NA,NA,NA,NA,NA,NA,NA,NA,NA,NA,NA,NA,NA,NA,NA,NA,NA,NA,NA,NA,NA,NA,NA,NA,NA,NA,NA,NA,NA,NA,NA,NA,NA,NA,NA,NA,NA
"95",K5PfWwW61Ajommy9xvXdAw,FALSE,Champaign,56,Kamakura Japanese Restaurant,character(0),-88.2435628,IL,3,40.107869,business,22:00,17:00,21:00,17:00,21:00,17:00,21:00,17:00,21:00,17:00,22:00,17:00,21:00,17:00,TRUE,NA,TRUE,quiet,TRUE,FALSE,TRUE,FALSE,casual,full_bar,TRUE,TRUE,TRUE,TRUE,2,NA,NA,NA,NA,free,TRUE,NA,NA,FALSE,yes_free,NA,NA,NA,NA,NA,FALSE,FALSE,FALSE,TRUE,FALSE,FALSE,FALSE,FALSE,FALSE,FALSE,FALSE,FALSE,FALSE,FALSE,TRUE,FALSE,FALSE,FALSE,TRUE,FALSE,NA,NA,NA,NA,NA,NA,NA,NA,NA,NA,NA,NA,NA,NA,NA,NA,NA,NA,NA,NA,NA
"96",8zaahO6vCRqr26E5z-VJ-Q,TRUE,Champaign,9,Dallas & Co Costumes & Magic,character(0),-88.238533,IL,4.5,40.116032,business,18:00,10:00,18:00,10:00,18:00,10:00,18:00,10:00,18:00,10:00,18:00,10:00,NA,NA,NA,NA,NA,NA,NA,NA,NA,NA,NA,NA,NA,TRUE,NA,NA,2,NA,NA,NA,NA,NA,TRUE,NA,NA,NA,NA,NA,NA,NA,NA,NA,NA,NA,NA,NA,NA,NA,NA,NA,NA,NA,NA,NA,NA,NA,NA,FALSE,FALSE,FALSE,TRUE,FALSE,NA,NA,NA,NA,NA,NA,NA,NA,NA,NA,NA,NA,NA,NA,NA,NA,NA,NA,NA,NA,NA
"97",xwteMLHEtxdTGHASpXQcfg,TRUE,Champaign,13,Illini Eye Care,character(0),-88.2312662,IL,4,40.1106185,business,18:00,09:00,18:00,09:00,18:00,09:00,18:00,09:00,18:00,09:00,13:00,09:00,NA,NA,NA,NA,NA,NA,NA,NA,NA,NA,NA,NA,NA,TRUE,NA,NA,4,NA,NA,NA,NA,NA,FALSE,FALSE,NA,NA,NA,NA,FALSE,TRUE,NA,NA,NA,NA,NA,NA,NA,NA,NA,NA,NA,NA,NA,NA,NA,NA,NA,TRUE,FALSE,FALSE,FALSE,FALSE,NA,NA,NA,NA,NA,NA,NA,NA,NA,NA,NA,NA,NA,NA,NA,NA,NA,NA,NA,NA,NA
"98",gwrFXlSudWuA-zxZeE5svA,FALSE,Champaign,48,Seaboat,character(0),-88.2487949,IL,3.5,40.0977581,business,21:00,11:00,21:00,11:00,21:00,11:00,21:00,11:00,21:00,11:00,21:00,11:00,20:00,12:00,TRUE,NA,NA,loud,FALSE,TRUE,TRUE,FALSE,casual,none,FALSE,TRUE,TRUE,FALSE,1,NA,NA,NA,NA,NA,TRUE,NA,NA,FALSE,yes_free,TRUE,NA,NA,NA,NA,FALSE,FALSE,TRUE,TRUE,FALSE,FALSE,FALSE,FALSE,FALSE,FALSE,FALSE,FALSE,FALSE,FALSE,TRUE,FALSE,FALSE,FALSE,TRUE,FALSE,NA,NA,NA,NA,NA,NA,NA,NA,NA,NA,NA,NA,NA,NA,NA,NA,NA,NA,NA,NA,NA
"99",H0D2HYqLd9MRCq68rtbTyQ,TRUE,Champaign,47,Olive Garden Italian Restaurant,character(0),-88.241127950452,IL,3,40.135851981612,business,23:00,11:00,22:00,11:00,22:00,11:00,22:00,11:00,22:00,11:00,23:00,11:00,22:00,11:00,TRUE,NA,FALSE,average,FALSE,FALSE,FALSE,FALSE,casual,beer_and_wine,TRUE,TRUE,TRUE,TRUE,2,FALSE,FALSE,FALSE,no,no,TRUE,FALSE,NA,NA,NA,NA,NA,NA,NA,NA,FALSE,FALSE,TRUE,FALSE,FALSE,FALSE,FALSE,FALSE,FALSE,FALSE,FALSE,FALSE,FALSE,FALSE,TRUE,FALSE,FALSE,FALSE,TRUE,FALSE,NA,NA,NA,NA,NA,NA,NA,NA,NA,NA,NA,NA,NA,NA,NA,NA,NA,NA,NA,NA,NA
"100",tjtja17w3r-yBUXnG2KNaQ,TRUE,Champaign,3,Tradehome Shoes,character(0),-88.243865,IL,5,40.1427776,business,NA,NA,NA,NA,NA,NA,NA,NA,NA,NA,NA,NA,NA,NA,NA,NA,NA,NA,NA,NA,NA,NA,NA,NA,NA,TRUE,NA,NA,3,NA,NA,NA,NA,NA,TRUE,NA,NA,NA,NA,NA,NA,NA,NA,NA,NA,NA,NA,NA,NA,NA,NA,NA,NA,NA,NA,NA,NA,NA,NA,FALSE,FALSE,FALSE,FALSE,FALSE,NA,NA,NA,NA,NA,NA,NA,NA,NA,NA,NA,NA,NA,NA,NA,NA,NA,NA,NA,NA,NA
"101",bmGEYg9Xw9XmCQXgeZ_Pyw,TRUE,Champaign,20,Walnut Street Tea,character(0),-88.2432021593636,IL,4,40.1154721496324,business,18:00,10:00,18:00,10:00,18:00,10:00,18:00,10:00,18:00,10:00,17:00,10:00,NA,NA,NA,NA,NA,NA,NA,NA,NA,FALSE,NA,NA,NA,TRUE,NA,NA,2,NA,NA,NA,NA,no,FALSE,FALSE,NA,NA,NA,NA,NA,NA,NA,NA,NA,NA,NA,NA,NA,NA,NA,NA,NA,NA,NA,NA,NA,NA,NA,FALSE,TRUE,FALSE,FALSE,FALSE,NA,NA,NA,NA,NA,NA,NA,NA,NA,NA,NA,NA,NA,NA,NA,NA,NA,NA,NA,NA,NA
"102",cMJL8kZOF0VsYMhM2DKkBw,TRUE,Champaign,7,Fannie May Fine Chocolates,character(0),-88.24319,IL,4,40.112354,business,20:00,09:00,20:00,09:00,20:00,09:00,20:00,09:00,20:00,09:00,20:00,09:00,18:00,10:00,NA,NA,NA,NA,NA,NA,NA,NA,NA,NA,NA,TRUE,NA,NA,2,NA,NA,NA,NA,NA,NA,NA,NA,NA,NA,NA,NA,NA,NA,NA,NA,NA,NA,NA,NA,NA,NA,NA,NA,NA,NA,NA,NA,NA,NA,FALSE,FALSE,FALSE,TRUE,FALSE,NA,NA,NA,NA,NA,NA,NA,NA,NA,NA,NA,NA,NA,NA,NA,NA,NA,NA,NA,NA,NA
"103",mtQHSFxx35emKstqMxp9Cw,FALSE,Champaign,4,Basmati Indian Cuisine,character(0),-88.238369,IL,2.5,40.114132,business,NA,NA,NA,NA,NA,NA,NA,NA,NA,NA,NA,NA,NA,NA,TRUE,NA,NA,NA,NA,FALSE,NA,FALSE,casual,NA,TRUE,TRUE,TRUE,TRUE,2,NA,NA,NA,NA,NA,NA,NA,FALSE,NA,no,NA,NA,NA,NA,NA,NA,FALSE,FALSE,FALSE,NA,FALSE,NA,NA,NA,NA,NA,NA,NA,NA,NA,FALSE,FALSE,FALSE,FALSE,FALSE,NA,NA,NA,NA,NA,NA,NA,NA,NA,NA,NA,NA,NA,NA,NA,NA,NA,NA,NA,NA,NA
"104",nqPVRW2pVbzlspth71YFlw,TRUE,Champaign,3,Lee's Oriental Foods,character(0),-88.247057,IL,3.5,40.098746,business,NA,NA,NA,NA,NA,NA,NA,NA,NA,NA,NA,NA,NA,NA,NA,NA,NA,NA,NA,NA,NA,NA,NA,NA,NA,TRUE,NA,NA,1,NA,NA,NA,NA,NA,NA,NA,NA,NA,NA,NA,NA,NA,NA,NA,NA,NA,NA,NA,NA,NA,NA,NA,NA,NA,NA,NA,NA,NA,NA,FALSE,FALSE,FALSE,FALSE,FALSE,NA,NA,NA,NA,NA,NA,NA,NA,NA,NA,NA,NA,NA,NA,NA,NA,NA,NA,NA,NA,NA
"105",SoyigEmlt4JYwnOqR_cqUw,TRUE,Champaign,53,The Ribeye,character(0),-88.2454553,IL,3.5,40.096106,business,21:30,16:30,21:00,16:30,21:00,16:30,21:00,16:30,21:00,16:30,21:30,16:00,21:00,16:00,FALSE,NA,FALSE,average,TRUE,FALSE,FALSE,FALSE,casual,full_bar,TRUE,TRUE,TRUE,TRUE,2,NA,NA,NA,NA,no,TRUE,NA,FALSE,FALSE,yes_free,NA,NA,NA,NA,NA,FALSE,FALSE,FALSE,TRUE,FALSE,FALSE,FALSE,FALSE,FALSE,FALSE,FALSE,FALSE,FALSE,FALSE,TRUE,FALSE,FALSE,FALSE,TRUE,FALSE,NA,NA,NA,NA,NA,NA,NA,NA,NA,NA,NA,NA,NA,NA,NA,NA,NA,NA,NA,NA,NA
"106",niK-GkBZ_RIFscfy-nH1rg,TRUE,Champaign,36,Old Time Meat & Deli Shoppe,character(0),-88.2452807,IL,5,40.091899,business,18:00,10:00,18:00,10:00,18:00,10:00,18:00,10:00,18:00,10:00,18:00,10:00,NA,NA,TRUE,NA,FALSE,average,FALSE,FALSE,FALSE,FALSE,casual,none,FALSE,TRUE,FALSE,FALSE,2,NA,NA,NA,NA,no,TRUE,NA,NA,NA,NA,NA,NA,NA,NA,NA,FALSE,FALSE,FALSE,FALSE,FALSE,FALSE,FALSE,FALSE,FALSE,FALSE,FALSE,FALSE,FALSE,FALSE,FALSE,FALSE,FALSE,FALSE,TRUE,FALSE,NA,NA,NA,NA,NA,NA,NA,NA,NA,NA,NA,NA,NA,NA,NA,NA,NA,NA,NA,NA,NA
"107",poO9V5Sz0JDrLihx31NQaw,TRUE,Champaign,6,Kohl's,character(0),-88.24166,IL,5,40.138566,business,23:00,09:00,22:00,09:00,22:00,09:00,22:00,09:00,22:00,09:00,23:00,08:00,21:00,09:00,NA,NA,NA,NA,NA,NA,NA,NA,NA,NA,NA,TRUE,NA,NA,2,NA,NA,NA,NA,NA,TRUE,NA,NA,NA,NA,NA,NA,NA,NA,NA,NA,NA,NA,NA,NA,NA,NA,NA,NA,NA,NA,NA,NA,NA,NA,FALSE,FALSE,FALSE,TRUE,FALSE,NA,NA,NA,NA,NA,NA,NA,NA,NA,NA,NA,NA,NA,NA,NA,NA,NA,NA,NA,NA,NA
"108",Vb3u4Io2pgPhI37Qn61vlA,TRUE,Champaign,21,Sailfin Pet Shop,character(0),-88.2432775003955,IL,4,40.107519541871,business,19:00,09:00,19:00,09:00,19:00,09:00,19:00,09:00,19:00,09:00,18:00,09:00,17:00,11:00,NA,NA,NA,NA,NA,NA,NA,NA,NA,NA,NA,NA,NA,NA,NA,NA,NA,NA,NA,NA,NA,NA,NA,NA,NA,NA,NA,NA,NA,NA,NA,NA,NA,NA,NA,NA,NA,NA,NA,NA,NA,NA,NA,NA,NA,NA,NA,NA,NA,NA,NA,NA,NA,NA,NA,NA,NA,NA,NA,NA,NA,NA,NA,NA,NA,NA,NA,NA,NA,NA,NA
"109",hed-iIA7X_l_h38K-q8Wmg,FALSE,Champaign,7,Needleworks,character(0),-88.241673,IL,4.5,40.110524,business,17:00,09:30,17:00,09:30,17:00,09:30,17:00,09:30,17:00,09:30,17:00,09:30,NA,NA,NA,NA,NA,NA,NA,NA,NA,NA,NA,NA,NA,TRUE,NA,NA,3,NA,NA,NA,NA,NA,TRUE,NA,NA,NA,NA,NA,NA,NA,NA,NA,NA,NA,NA,NA,NA,NA,NA,NA,NA,NA,NA,NA,NA,NA,NA,FALSE,FALSE,FALSE,TRUE,FALSE,NA,NA,NA,NA,NA,NA,NA,NA,NA,NA,NA,NA,NA,NA,NA,NA,NA,NA,NA,NA,NA
"110",-k-VmpnaXaGmw03km2QdUA,TRUE,Champaign,5,AutoZone,character(0),-88.2340246,IL,4.5,40.1160969,business,NA,NA,NA,NA,NA,NA,NA,NA,NA,NA,NA,NA,NA,NA,NA,NA,NA,NA,NA,NA,NA,NA,NA,NA,NA,NA,NA,NA,NA,NA,NA,NA,NA,NA,NA,NA,NA,NA,NA,NA,NA,NA,NA,NA,NA,NA,NA,NA,NA,NA,NA,NA,NA,NA,NA,NA,NA,NA,NA,NA,NA,NA,NA,NA,NA,NA,NA,NA,NA,NA,NA,NA,NA,NA,NA,NA,NA,NA,NA,NA,NA,NA,NA,NA,NA
"111",XfqqfNrnZgEE-78OMuCqsg,FALSE,Champaign,9,Browne's Fine Jewelry,character(0),-88.2468743,IL,4,40.098318,business,18:00,10:00,18:00,10:00,18:00,10:00,18:00,10:00,NA,NA,17:00,10:00,NA,NA,NA,NA,NA,NA,NA,NA,NA,NA,NA,NA,NA,TRUE,NA,NA,3,NA,NA,NA,NA,NA,NA,NA,NA,NA,NA,NA,FALSE,NA,NA,NA,NA,NA,NA,NA,NA,NA,NA,NA,NA,NA,NA,NA,NA,NA,NA,FALSE,FALSE,FALSE,TRUE,FALSE,NA,NA,NA,NA,NA,NA,NA,NA,NA,NA,NA,NA,NA,NA,NA,NA,NA,NA,NA,NA,NA
"112",UOqPPWNCh9oeXhv3SrjWBA,TRUE,Champaign,17,University Group,character(0),-88.2390528,IL,2,40.1132632,business,NA,NA,NA,NA,NA,NA,NA,NA,NA,NA,NA,NA,NA,NA,NA,NA,NA,NA,NA,NA,NA,NA,NA,NA,NA,FALSE,NA,NA,NA,NA,NA,NA,NA,NA,NA,NA,NA,NA,NA,NA,NA,NA,NA,NA,NA,NA,NA,NA,NA,NA,NA,NA,NA,NA,NA,NA,NA,NA,NA,NA,NA,NA,NA,NA,NA,NA,NA,NA,NA,NA,NA,NA,NA,NA,NA,NA,NA,NA,NA,NA,NA,NA,NA,NA,NA
"113",OeuVJI9-JSjGLDBxtntsdw,FALSE,Champaign,12,Carrie's,character(0),-88.243507,IL,3,40.1175503,business,NA,NA,NA,NA,NA,NA,NA,NA,NA,NA,NA,NA,NA,NA,NA,NA,NA,NA,NA,NA,NA,NA,NA,NA,NA,TRUE,NA,NA,3,NA,NA,NA,NA,NA,TRUE,NA,NA,NA,NA,NA,FALSE,NA,NA,NA,NA,NA,NA,NA,NA,NA,NA,NA,NA,NA,NA,NA,NA,NA,NA,FALSE,TRUE,FALSE,FALSE,FALSE,NA,NA,NA,NA,NA,NA,NA,NA,NA,NA,NA,NA,NA,NA,NA,NA,NA,NA,NA,NA,NA
"114",Q9eZS4qDdJo1ker0w3wnMg,TRUE,Urbana,69,Common Ground Food Co-Op,character(0),-88.2070866,IL,4,40.1105839,business,NA,NA,NA,NA,NA,NA,NA,NA,NA,NA,NA,NA,NA,NA,TRUE,NA,NA,NA,NA,NA,NA,NA,NA,NA,NA,TRUE,NA,NA,2,NA,NA,NA,NA,NA,TRUE,NA,NA,NA,NA,NA,NA,NA,NA,NA,NA,NA,NA,NA,NA,NA,NA,NA,NA,NA,NA,NA,NA,NA,NA,FALSE,FALSE,FALSE,TRUE,FALSE,NA,NA,NA,NA,NA,NA,NA,NA,NA,NA,NA,NA,NA,NA,NA,NA,NA,NA,NA,NA,NA
"115",5RoLmEt2HwX3qEwRT6SD_Q,TRUE,Champaign,3,Gasoline Alley,character(0),-88.2390099,IL,2.5,40.112393,business,NA,NA,NA,NA,NA,NA,NA,NA,NA,NA,NA,NA,NA,NA,NA,NA,NA,NA,NA,NA,NA,NA,NA,NA,NA,TRUE,NA,NA,NA,NA,NA,NA,NA,NA,NA,NA,NA,NA,NA,NA,NA,NA,NA,NA,NA,NA,NA,NA,NA,NA,NA,NA,NA,NA,NA,NA,NA,NA,NA,NA,NA,NA,NA,NA,NA,NA,NA,NA,NA,NA,NA,NA,NA,NA,NA,NA,NA,NA,NA,NA,NA,NA,NA,NA,NA
"116",p5CW9rxsjQ-oCcjCaCw_8A,TRUE,Champaign,10,TJ Maxx,character(0),-88.2416904,IL,3.5,40.1377735,business,NA,NA,NA,NA,NA,NA,NA,NA,NA,NA,NA,NA,NA,NA,NA,NA,NA,NA,NA,NA,NA,NA,NA,NA,NA,TRUE,NA,NA,2,NA,NA,NA,NA,NA,TRUE,NA,NA,NA,NA,NA,NA,NA,NA,NA,NA,NA,NA,NA,NA,NA,NA,NA,NA,NA,NA,NA,NA,NA,NA,FALSE,FALSE,FALSE,TRUE,FALSE,NA,NA,NA,NA,NA,NA,NA,NA,NA,NA,NA,NA,NA,NA,NA,NA,NA,NA,NA,NA,NA
"117",jQbdeplrAxIl8nM-eDeiRw,TRUE,Champaign,5,Skins & Tins Drum Shop,character(0),-88.2420424,IL,5,40.1177896,business,18:00,11:00,18:00,11:00,18:00,11:00,18:00,11:00,18:00,11:00,16:00,10:00,NA,NA,NA,NA,NA,NA,NA,NA,NA,NA,NA,NA,NA,TRUE,NA,NA,NA,NA,NA,NA,NA,NA,NA,NA,NA,NA,NA,NA,NA,NA,NA,NA,NA,NA,NA,NA,NA,NA,NA,NA,NA,NA,NA,NA,NA,NA,NA,FALSE,FALSE,FALSE,FALSE,FALSE,NA,NA,NA,NA,NA,NA,NA,NA,NA,NA,NA,NA,NA,NA,NA,NA,NA,NA,NA,NA,NA
"118",u-uLHVaDZdlbQYmcYeFm_Q,TRUE,Champaign,4,Ron's Campus Locksmith Shop,character(0),-88.2318621,IL,2,40.1104614,business,17:00,08:00,17:00,08:00,17:00,08:00,17:00,08:00,17:00,08:00,NA,NA,NA,NA,NA,NA,NA,NA,NA,NA,NA,NA,NA,NA,NA,TRUE,NA,NA,NA,NA,NA,NA,NA,NA,NA,NA,NA,NA,NA,NA,NA,NA,NA,NA,NA,NA,NA,NA,NA,NA,NA,NA,NA,NA,NA,NA,NA,NA,NA,NA,NA,NA,NA,NA,NA,NA,NA,NA,NA,NA,NA,NA,NA,NA,NA,NA,NA,NA,NA,NA,NA,NA,NA,NA,NA
"119",aQvUUGVLcamPFBQPJtH42w,TRUE,Champaign,3,Greyhound Bus Lines,character(0),-88.2411534349355,IL,3,40.1160855541181,business,23:00,07:30,23:00,07:30,23:00,07:30,23:00,07:30,23:00,07:30,23:00,07:30,23:00,07:30,NA,NA,NA,NA,NA,NA,NA,NA,NA,NA,NA,TRUE,NA,NA,NA,NA,NA,NA,NA,NA,NA,NA,NA,NA,NA,NA,NA,NA,NA,NA,NA,NA,NA,NA,NA,NA,NA,NA,NA,NA,NA,NA,NA,NA,NA,NA,NA,NA,NA,NA,NA,NA,NA,NA,NA,NA,NA,NA,NA,NA,NA,NA,NA,NA,NA,NA,NA,NA,NA,NA,NA
"120",230kHTDqDoyLBHtI0dbZtQ,TRUE,Urbana,10,Art Coop,character(0),-88.2072274,IL,4,40.111105,business,19:00,10:00,19:00,10:00,19:00,10:00,19:00,10:00,19:00,10:00,19:00,10:00,17:00,12:00,NA,NA,NA,NA,NA,NA,NA,NA,NA,NA,NA,TRUE,NA,NA,3,NA,NA,NA,NA,NA,TRUE,NA,NA,NA,NA,NA,NA,NA,NA,NA,NA,NA,NA,NA,NA,NA,NA,NA,NA,NA,NA,NA,NA,NA,NA,FALSE,TRUE,FALSE,TRUE,FALSE,NA,NA,NA,NA,NA,NA,NA,NA,NA,NA,NA,NA,NA,NA,NA,NA,NA,NA,NA,NA,NA
"121",39RrxAOowBFMzC7MRVbucQ,TRUE,Champaign,19,Starcrest Cleaners,character(0),-88.2441468,IL,2.5,40.1092791,business,21:00,07:00,21:00,07:00,21:00,07:00,21:00,07:00,21:00,07:00,21:00,07:00,21:00,07:00,NA,NA,NA,NA,NA,NA,NA,NA,NA,NA,NA,TRUE,NA,NA,3,NA,NA,NA,NA,free,NA,NA,NA,NA,NA,NA,NA,NA,NA,NA,NA,NA,NA,NA,NA,NA,NA,NA,NA,NA,NA,NA,NA,NA,NA,FALSE,FALSE,FALSE,TRUE,FALSE,NA,NA,NA,NA,NA,NA,NA,NA,NA,NA,NA,NA,NA,NA,NA,NA,NA,NA,NA,NA,NA
"122",FylcUiNkqS1D6qhYOcF0Wg,TRUE,Champaign,3,Bacheller David DMD,character(0),-88.2475075,IL,5,40.115077,business,NA,NA,NA,NA,NA,NA,NA,NA,NA,NA,NA,NA,NA,NA,NA,NA,NA,NA,NA,NA,NA,NA,NA,NA,NA,NA,NA,NA,NA,NA,NA,NA,NA,NA,NA,NA,NA,NA,NA,NA,TRUE,TRUE,NA,NA,NA,NA,NA,NA,NA,NA,NA,NA,NA,NA,NA,NA,NA,NA,NA,NA,NA,NA,NA,NA,NA,NA,NA,NA,NA,NA,NA,NA,NA,NA,NA,NA,NA,NA,NA,NA,NA,NA,NA,NA,NA
"123",O-4Py5dP582vRWThhHz66w,TRUE,Champaign,8,Federal Warehouse Company - An Agent Of Allied Van Lines,character(0),-88.2486681,IL,2.5,40.133907,business,21:00,07:00,21:00,07:00,21:00,07:00,21:00,07:00,21:00,07:00,15:00,09:00,16:00,10:00,NA,NA,NA,NA,NA,NA,NA,NA,NA,NA,NA,TRUE,NA,NA,NA,NA,NA,NA,NA,NA,NA,NA,NA,NA,NA,NA,NA,NA,NA,NA,NA,NA,NA,NA,NA,NA,NA,NA,NA,NA,NA,NA,NA,NA,NA,NA,NA,NA,NA,NA,NA,NA,NA,NA,NA,NA,NA,NA,NA,NA,NA,NA,NA,NA,NA,NA,NA,NA,NA,NA,NA
"124",GpMijrYiLAU0FdOQo9Af_w,TRUE,Champaign,13,Furniture Lounge,character(0),-88.242955,IL,4.5,40.116164,business,17:00,11:00,16:00,12:00,17:00,11:00,NA,NA,16:00,12:00,17:00,11:00,16:00,12:00,NA,NA,NA,NA,NA,NA,NA,NA,NA,NA,NA,TRUE,NA,NA,3,NA,NA,NA,NA,NA,NA,NA,NA,NA,NA,NA,FALSE,NA,NA,NA,NA,NA,NA,NA,NA,NA,NA,NA,NA,NA,NA,NA,NA,NA,NA,FALSE,TRUE,FALSE,FALSE,FALSE,NA,NA,NA,NA,NA,NA,NA,NA,NA,NA,NA,NA,NA,NA,NA,NA,NA,NA,NA,NA,NA
"125",vBg5V39Vf4eTx1JVgl_5Pg,TRUE,Champaign,56,Merry-Ann's Diner,character(0),-88.2442462116229,IL,3,40.0984525131702,business,NA,NA,NA,NA,NA,NA,NA,NA,NA,NA,NA,NA,NA,NA,TRUE,NA,FALSE,average,FALSE,FALSE,FALSE,FALSE,casual,none,TRUE,TRUE,TRUE,TRUE,1,NA,NA,NA,NA,no,TRUE,NA,FALSE,NA,no,NA,NA,NA,NA,NA,FALSE,FALSE,FALSE,FALSE,FALSE,TRUE,FALSE,FALSE,FALSE,FALSE,TRUE,FALSE,FALSE,FALSE,FALSE,FALSE,FALSE,FALSE,TRUE,FALSE,NA,NA,NA,NA,NA,NA,NA,NA,NA,NA,NA,NA,NA,NA,NA,NA,NA,NA,NA,NA,NA
"126",UV04TEpMGWoQs36FkBwOgQ,FALSE,Champaign,15,TGI Friday's,character(0),-88.245695,IL,3,40.097136,business,NA,NA,NA,NA,NA,NA,NA,NA,NA,NA,NA,NA,NA,NA,TRUE,NA,NA,average,FALSE,FALSE,TRUE,FALSE,casual,full_bar,TRUE,TRUE,TRUE,TRUE,2,NA,NA,NA,NA,no,TRUE,NA,NA,NA,NA,NA,NA,NA,NA,NA,FALSE,FALSE,TRUE,TRUE,FALSE,FALSE,FALSE,FALSE,FALSE,FALSE,FALSE,FALSE,FALSE,FALSE,FALSE,FALSE,FALSE,FALSE,TRUE,FALSE,NA,NA,NA,NA,NA,NA,NA,NA,NA,NA,NA,NA,NA,NA,NA,NA,NA,NA,NA,NA,NA
"127",G7td0ad3wqtEODTJpNjEZQ,FALSE,Champaign,43,Carmon's Restaurant,character(0),-88.2438559,IL,4,40.119807,business,NA,NA,NA,NA,NA,NA,NA,NA,NA,NA,NA,NA,NA,NA,TRUE,NA,NA,quiet,TRUE,FALSE,FALSE,TRUE,casual,full_bar,TRUE,TRUE,TRUE,TRUE,2,NA,NA,NA,NA,NA,TRUE,NA,NA,NA,NA,NA,NA,NA,NA,NA,FALSE,FALSE,FALSE,FALSE,TRUE,FALSE,TRUE,TRUE,FALSE,FALSE,FALSE,FALSE,FALSE,NA,TRUE,FALSE,FALSE,FALSE,TRUE,FALSE,NA,NA,NA,NA,NA,NA,NA,NA,NA,NA,NA,NA,NA,NA,NA,NA,NA,NA,NA,NA,NA
"128",lN-Yl_ieWU5LTNXGaddaTA,TRUE,Champaign,10,Orpheum Children's Science Museum,character(0),-88.2425219,IL,2.5,40.119484,business,16:00,10:00,16:00,10:00,16:00,10:00,16:00,10:00,NA,NA,17:00,13:00,17:00,13:00,NA,NA,NA,NA,NA,NA,NA,NA,NA,NA,NA,NA,TRUE,NA,NA,NA,NA,NA,NA,NA,NA,NA,NA,NA,NA,NA,NA,NA,NA,NA,NA,NA,NA,NA,NA,NA,NA,NA,NA,NA,NA,NA,NA,NA,NA,NA,NA,NA,NA,NA,NA,NA,NA,NA,NA,NA,NA,NA,NA,NA,NA,NA,NA,NA,NA,NA,NA,NA,NA,NA,NA
"129",_dOcOVjrFcIKbMWX1VTdBA,TRUE,Champaign,44,Fiesta Cafe,character(0),-88.2384807,IL,4,40.1147989,business,23:00,11:00,23:00,11:00,23:00,11:00,23:00,11:00,23:00,11:00,23:00,11:00,23:00,11:00,TRUE,NA,TRUE,average,NA,NA,TRUE,TRUE,casual,full_bar,TRUE,TRUE,TRUE,TRUE,2,NA,NA,NA,NA,free,TRUE,NA,FALSE,NA,no,NA,NA,NA,NA,NA,FALSE,FALSE,TRUE,TRUE,FALSE,FALSE,FALSE,FALSE,FALSE,FALSE,FALSE,FALSE,FALSE,FALSE,TRUE,FALSE,FALSE,FALSE,TRUE,FALSE,NA,NA,NA,NA,NA,NA,NA,NA,NA,NA,NA,NA,NA,NA,NA,NA,NA,NA,NA,NA,NA
"130",PDkUYSaYK6pAJysaOe2FnQ,TRUE,Champaign,17,Amtrak,character(0),-88.241201,IL,2.5,40.1157886,business,NA,NA,NA,NA,NA,NA,NA,NA,NA,NA,NA,NA,NA,NA,NA,NA,NA,NA,NA,NA,NA,NA,NA,NA,NA,NA,NA,NA,NA,NA,NA,NA,NA,NA,NA,NA,NA,NA,NA,NA,NA,NA,NA,NA,NA,NA,NA,NA,NA,NA,NA,NA,NA,NA,NA,NA,NA,NA,NA,NA,NA,NA,NA,NA,NA,NA,NA,NA,NA,NA,NA,NA,NA,NA,NA,NA,NA,NA,NA,NA,NA,NA,NA,NA,NA
"131",7jysCBzdTImV_0m0kuj1XA,TRUE,Champaign,3,Andy's Towing,character(0),-88.240345,IL,5,40.120833,business,00:00,00:00,00:00,00:00,00:00,00:00,00:00,00:00,00:00,00:00,00:00,00:00,00:00,00:00,NA,NA,NA,NA,NA,NA,NA,NA,NA,NA,NA,NA,NA,NA,NA,NA,NA,NA,NA,NA,NA,NA,NA,NA,NA,NA,NA,NA,NA,NA,NA,NA,NA,NA,NA,NA,NA,NA,NA,NA,NA,NA,NA,NA,NA,NA,NA,NA,NA,NA,NA,NA,NA,NA,NA,NA,NA,NA,NA,NA,NA,NA,NA,NA,NA,NA,NA,NA,NA,NA,NA
"132",2UAbUSTMsR9G26A8AYO3dA,TRUE,Champaign,80,Sam's Cafe,character(0),-88.2427068,IL,4,40.1169853,business,14:00,06:00,14:00,06:00,14:00,06:00,14:00,06:00,14:00,06:00,13:00,06:00,13:00,07:00,TRUE,NA,FALSE,average,FALSE,FALSE,FALSE,FALSE,casual,none,TRUE,FALSE,TRUE,TRUE,1,NA,NA,NA,NA,no,TRUE,NA,FALSE,FALSE,yes_free,NA,NA,NA,NA,NA,FALSE,FALSE,FALSE,FALSE,FALSE,TRUE,FALSE,FALSE,FALSE,FALSE,TRUE,FALSE,FALSE,FALSE,FALSE,FALSE,TRUE,FALSE,FALSE,FALSE,NA,NA,NA,NA,NA,NA,NA,NA,NA,NA,NA,NA,NA,NA,NA,NA,NA,NA,NA,NA,NA
"133",lPySbFYBYXW1zepKUV4euQ,TRUE,Champaign,8,Central Illinois Autobody Inc,character(0),-88.2413056,IL,4.5,40.118791,business,17:00,08:00,17:00,08:00,17:00,08:00,17:00,08:00,17:00,08:00,NA,NA,NA,NA,NA,NA,NA,NA,NA,NA,NA,NA,NA,NA,NA,NA,NA,NA,NA,NA,NA,NA,NA,NA,NA,NA,NA,NA,NA,NA,NA,NA,NA,NA,NA,NA,NA,NA,NA,NA,NA,NA,NA,NA,NA,NA,NA,NA,NA,NA,NA,NA,NA,NA,NA,NA,NA,NA,NA,NA,NA,NA,NA,NA,NA,NA,NA,NA,NA,NA,NA,NA,NA,NA,NA
"134",MVH3JOKpQvMTP4jxwBUhkA,TRUE,Champaign,102,Murphy's Pub,character(0),-88.2301879674196,IL,3.5,40.1103799066466,business,02:00,11:00,02:00,11:00,02:00,11:00,02:00,11:00,02:00,11:00,02:00,11:00,02:00,11:00,TRUE,NA,FALSE,average,FALSE,FALSE,TRUE,FALSE,casual,full_bar,FALSE,TRUE,FALSE,TRUE,1,FALSE,FALSE,FALSE,no,free,TRUE,NA,NA,NA,NA,NA,NA,NA,NA,NA,FALSE,TRUE,FALSE,FALSE,FALSE,FALSE,FALSE,FALSE,FALSE,FALSE,FALSE,FALSE,FALSE,FALSE,TRUE,FALSE,TRUE,FALSE,FALSE,FALSE,FALSE,NA,TRUE,FALSE,FALSE,NA,NA,NA,NA,NA,NA,NA,NA,NA,NA,NA,NA,NA,NA,NA,NA
"135",IK1vnAKTv-6FMaGecUe1lA,TRUE,Champaign,9,Brass Rail,character(0),-88.2428643,IL,3.5,40.1161349,business,NA,NA,NA,NA,NA,NA,NA,NA,NA,NA,NA,NA,NA,NA,NA,NA,NA,average,NA,NA,TRUE,FALSE,NA,full_bar,NA,FALSE,NA,TRUE,1,FALSE,FALSE,FALSE,outdoor,NA,NA,NA,NA,NA,NA,NA,NA,NA,NA,NA,NA,NA,NA,NA,NA,NA,FALSE,FALSE,FALSE,FALSE,FALSE,FALSE,FALSE,FALSE,FALSE,FALSE,TRUE,FALSE,FALSE,FALSE,FALSE,FALSE,TRUE,FALSE,FALSE,FALSE,NA,NA,NA,NA,NA,NA,NA,NA,NA,NA,NA,NA,NA,NA,NA
"136",6HKjKhgDLBpuZFNBOCzVQw,TRUE,Champaign,91,Le Peep Restaurant,character(0),-88.247837,IL,3.5,40.086902,business,14:00,06:30,14:00,06:30,14:00,06:30,14:00,06:30,14:00,06:30,14:30,07:00,14:30,07:00,TRUE,NA,FALSE,average,FALSE,FALSE,FALSE,TRUE,casual,none,TRUE,TRUE,TRUE,TRUE,2,NA,NA,NA,NA,no,TRUE,NA,NA,NA,NA,NA,NA,NA,NA,NA,FALSE,FALSE,FALSE,FALSE,TRUE,TRUE,FALSE,FALSE,FALSE,FALSE,FALSE,FALSE,FALSE,FALSE,TRUE,FALSE,FALSE,FALSE,TRUE,FALSE,NA,NA,NA,NA,NA,NA,NA,NA,NA,NA,NA,NA,NA,NA,NA,NA,NA,NA,NA,NA,NA
"137",ygZ1n-RjzZibC80NLgHauw,TRUE,Champaign,25,Manzellas Italian Restaurant,character(0),-88.23873,IL,3.5,40.1158806,business,22:00,11:00,21:00,11:00,21:00,11:00,21:00,11:00,21:00,11:00,22:00,17:00,21:00,17:00,TRUE,NA,NA,average,TRUE,FALSE,FALSE,FALSE,casual,full_bar,TRUE,TRUE,TRUE,TRUE,2,NA,NA,NA,NA,no,TRUE,NA,FALSE,TRUE,yes_corkage,NA,NA,NA,NA,NA,FALSE,FALSE,FALSE,TRUE,FALSE,FALSE,FALSE,FALSE,FALSE,FALSE,FALSE,FALSE,FALSE,FALSE,TRUE,FALSE,TRUE,FALSE,FALSE,FALSE,NA,NA,NA,NA,NA,NA,NA,NA,NA,NA,NA,NA,NA,NA,NA,NA,NA,NA,NA,NA,NA
"138",_gr8yc554Sz8jx1ThLXcWg,TRUE,Champaign,4,Jos. Kuhn & Co,character(0),-88.2416361,IL,4,40.1179288,business,20:00,10:00,20:00,10:00,18:00,10:00,18:00,10:00,18:00,10:00,18:00,10:00,NA,NA,NA,NA,NA,NA,NA,NA,NA,NA,NA,NA,NA,NA,NA,NA,NA,NA,NA,NA,NA,NA,NA,NA,NA,NA,NA,NA,NA,NA,NA,NA,NA,NA,NA,NA,NA,NA,NA,NA,NA,NA,NA,NA,NA,NA,NA,NA,NA,NA,NA,NA,NA,NA,NA,NA,NA,NA,NA,NA,NA,NA,NA,NA,NA,NA,NA,NA,NA,NA,NA,NA,NA
"139",-ITQFFUePZYEH8Rjd8J9_Q,TRUE,Champaign,6,Ten Thousand Villages,character(0),-88.2428608,IL,4,40.1167333,business,NA,NA,NA,NA,NA,NA,NA,NA,NA,NA,NA,NA,NA,NA,NA,NA,NA,NA,NA,NA,NA,NA,NA,NA,NA,TRUE,NA,NA,3,NA,NA,NA,NA,NA,TRUE,NA,NA,NA,NA,NA,NA,NA,NA,NA,NA,NA,NA,NA,NA,NA,NA,NA,NA,NA,NA,NA,NA,NA,NA,FALSE,TRUE,FALSE,FALSE,FALSE,NA,NA,NA,NA,NA,NA,NA,NA,NA,NA,NA,NA,NA,NA,NA,NA,NA,NA,NA,NA,NA
"140",7tc1tVzAQqVeXSPexReGZw,TRUE,Champaign,13,Speed Lube 10 Minute Oil Change Shops,character(0),-88.2347335,IL,5,40.1159854,business,NA,NA,NA,NA,NA,NA,NA,NA,NA,NA,NA,NA,NA,NA,NA,NA,NA,NA,NA,NA,NA,NA,NA,NA,NA,TRUE,NA,NA,NA,NA,NA,NA,NA,NA,NA,NA,NA,NA,NA,NA,NA,NA,NA,NA,NA,NA,NA,NA,NA,NA,NA,NA,NA,NA,NA,NA,NA,NA,NA,NA,NA,NA,NA,NA,NA,NA,NA,NA,NA,NA,NA,NA,NA,NA,NA,NA,NA,NA,NA,NA,NA,NA,NA,NA,NA
"141",TYyzrCsnGu7Dy8QbH5b4nQ,FALSE,Champaign,4,Dom's Patio Villa,character(0),-88.239757,IL,4.5,40.114144,business,NA,NA,NA,NA,NA,NA,NA,NA,NA,NA,NA,NA,NA,NA,TRUE,NA,NA,NA,TRUE,FALSE,NA,NA,casual,beer_and_wine,TRUE,TRUE,TRUE,TRUE,1,NA,NA,NA,NA,NA,NA,NA,NA,NA,NA,NA,NA,NA,NA,NA,NA,NA,NA,NA,NA,NA,NA,NA,NA,NA,NA,NA,NA,NA,NA,FALSE,FALSE,FALSE,FALSE,FALSE,NA,NA,NA,NA,NA,NA,NA,NA,NA,NA,NA,NA,NA,NA,NA,NA,NA,NA,NA,NA,NA
"142",-R6Vfo22FX33o64OLq6Ktg,FALSE,Champaign,3,Ginza & Co,character(0),-88.233756,IL,4,40.116052,business,NA,NA,NA,NA,NA,NA,NA,NA,NA,NA,NA,NA,NA,NA,NA,NA,NA,NA,NA,NA,NA,NA,NA,NA,NA,TRUE,NA,NA,2,NA,NA,NA,NA,NA,TRUE,NA,NA,NA,NA,NA,NA,NA,NA,NA,NA,NA,NA,NA,NA,NA,NA,NA,NA,NA,NA,NA,NA,NA,NA,FALSE,FALSE,FALSE,FALSE,FALSE,NA,NA,NA,NA,NA,NA,NA,NA,NA,NA,NA,NA,NA,NA,NA,NA,NA,NA,NA,NA,NA
"143",YUXKDhvZlODJ5_QlrXIFLA,FALSE,Champaign,7,Barfly,character(0),-88.243038,IL,2.5,40.117021,business,NA,NA,NA,NA,NA,NA,NA,NA,NA,NA,NA,NA,NA,NA,NA,NA,NA,NA,NA,NA,NA,TRUE,NA,full_bar,NA,TRUE,NA,TRUE,2,NA,NA,FALSE,outdoor,NA,TRUE,NA,NA,NA,NA,NA,NA,NA,NA,NA,NA,NA,NA,NA,NA,NA,NA,NA,NA,NA,NA,NA,NA,NA,NA,FALSE,FALSE,FALSE,FALSE,FALSE,FALSE,NA,FALSE,FALSE,FALSE,NA,NA,NA,NA,NA,NA,NA,NA,NA,NA,NA,NA,NA,NA,NA,NA
"144",oIwaoCzWY8ZtcF0NaZ38Ig,TRUE,Champaign,5,Gallo-Miller Paint & Collision Repair Inc,character(0),-88.249601,IL,5,40.133659,business,17:30,07:30,17:30,07:30,17:30,07:30,17:30,07:30,17:30,07:30,NA,NA,NA,NA,NA,NA,NA,NA,NA,NA,NA,NA,NA,NA,NA,FALSE,NA,NA,NA,NA,NA,NA,NA,NA,NA,NA,NA,NA,NA,NA,NA,NA,NA,NA,NA,NA,NA,NA,NA,NA,NA,NA,NA,NA,NA,NA,NA,NA,NA,NA,NA,NA,NA,NA,NA,NA,NA,NA,NA,NA,NA,NA,NA,NA,NA,NA,NA,NA,NA,NA,NA,NA,NA,NA,NA
"145",9SFWEreW7wAXB3zYu28r_Q,TRUE,Champaign,11,Hardee's,character(0),-88.2454984,IL,2.5,40.0956999,business,NA,NA,NA,NA,NA,NA,NA,NA,NA,NA,NA,NA,NA,NA,TRUE,TRUE,TRUE,average,FALSE,FALSE,FALSE,FALSE,casual,none,FALSE,TRUE,TRUE,TRUE,1,NA,NA,NA,NA,NA,NA,NA,NA,NA,NA,NA,NA,NA,NA,NA,FALSE,FALSE,FALSE,FALSE,FALSE,FALSE,FALSE,FALSE,FALSE,FALSE,FALSE,FALSE,FALSE,FALSE,FALSE,FALSE,FALSE,FALSE,TRUE,FALSE,NA,NA,NA,NA,NA,NA,NA,NA,NA,NA,NA,NA,NA,NA,NA,NA,NA,NA,NA,NA,NA
"146",6X7vAFv-Xj1TPcrJK7H2Eg,FALSE,Champaign,35,Mike N Molly's,character(0),-88.2418391481042,IL,4,40.116581159918,business,02:00,16:00,02:00,16:00,02:00,16:00,02:00,16:00,02:00,16:00,02:00,16:00,02:00,16:00,NA,NA,NA,loud,FALSE,NA,TRUE,TRUE,NA,full_bar,NA,TRUE,NA,TRUE,1,TRUE,FALSE,FALSE,outdoor,NA,TRUE,NA,NA,NA,NA,NA,NA,NA,NA,NA,NA,NA,NA,NA,NA,NA,FALSE,FALSE,FALSE,FALSE,FALSE,FALSE,FALSE,FALSE,TRUE,FALSE,TRUE,FALSE,FALSE,FALSE,TRUE,NA,TRUE,TRUE,FALSE,NA,NA,NA,NA,NA,NA,NA,NA,NA,NA,NA,NA,NA,NA,NA,NA
"147",qSwb2VJNzCKfY4FvqJM4eQ,FALSE,Champaign,4,Euro Mart,character(0),-88.2401565,IL,4,40.1126367,business,NA,NA,NA,NA,NA,NA,NA,NA,NA,NA,NA,NA,NA,NA,NA,NA,NA,NA,NA,NA,NA,NA,NA,NA,NA,TRUE,NA,NA,2,NA,NA,NA,NA,NA,TRUE,NA,NA,NA,NA,NA,NA,NA,NA,NA,NA,NA,NA,NA,NA,NA,NA,NA,NA,NA,NA,NA,NA,NA,NA,FALSE,FALSE,FALSE,FALSE,FALSE,NA,NA,NA,NA,NA,NA,NA,NA,NA,NA,NA,NA,NA,NA,NA,NA,NA,NA,NA,NA,NA
"148",AuVNvAunOyjZNxrjiVEnAA,TRUE,Champaign,16,Millennium Nails,character(0),-88.243865,IL,2,40.1427776,business,NA,NA,NA,NA,NA,NA,NA,NA,NA,NA,NA,NA,NA,NA,NA,NA,NA,NA,NA,NA,NA,NA,NA,NA,NA,TRUE,NA,NA,2,NA,NA,NA,NA,NA,TRUE,NA,NA,NA,NA,NA,FALSE,NA,NA,NA,NA,NA,NA,NA,NA,NA,NA,NA,NA,NA,NA,NA,NA,NA,NA,FALSE,FALSE,FALSE,TRUE,FALSE,NA,NA,NA,NA,NA,NA,NA,NA,NA,NA,NA,NA,NA,NA,NA,NA,NA,NA,NA,NA,NA
"149",eNEV1AbQsDMYtxCeXXpUGQ,FALSE,Champaign,5,Jillian's,character(0),-88.244236,IL,3.5,40.103246,business,NA,NA,NA,NA,NA,NA,NA,NA,NA,NA,NA,NA,NA,NA,NA,NA,NA,NA,NA,FALSE,NA,NA,NA,NA,NA,TRUE,NA,TRUE,NA,NA,NA,NA,NA,NA,NA,NA,NA,NA,NA,NA,NA,NA,NA,NA,NA,NA,NA,NA,NA,NA,NA,NA,NA,NA,NA,NA,NA,NA,NA,FALSE,FALSE,FALSE,FALSE,FALSE,FALSE,NA,TRUE,FALSE,NA,NA,NA,NA,NA,NA,NA,NA,NA,NA,NA,NA,NA,NA,NA,NA,NA
"150",zbfGsSEKu4OR1QAZaV6V3A,TRUE,Champaign,5,Mark of Cain Tattoo's,character(0),-88.230157,IL,5,40.1107889,business,17:00,10:00,17:00,10:00,17:00,10:00,17:00,10:00,17:00,10:00,17:00,10:00,NA,NA,NA,NA,NA,NA,NA,NA,NA,NA,NA,NA,NA,TRUE,NA,NA,2,NA,NA,NA,NA,NA,NA,NA,NA,NA,NA,NA,FALSE,NA,NA,NA,NA,NA,NA,NA,NA,NA,NA,NA,NA,NA,NA,NA,NA,NA,NA,NA,NA,NA,NA,NA,NA,NA,NA,NA,NA,NA,NA,NA,NA,NA,NA,NA,NA,NA,NA,NA,NA,NA,NA,NA,NA
"151",DKIWhF3OhRcwRtvV9pnbsw,TRUE,Champaign,9,Virginia Theatre,character(0),-88.2455847,IL,4,40.1170182,business,NA,NA,NA,NA,NA,NA,NA,NA,NA,NA,NA,NA,NA,NA,NA,NA,NA,NA,NA,NA,NA,NA,NA,NA,NA,TRUE,TRUE,NA,NA,NA,NA,NA,NA,NA,NA,NA,NA,NA,NA,NA,NA,NA,NA,NA,NA,NA,NA,NA,NA,NA,NA,NA,NA,NA,NA,NA,NA,NA,NA,NA,NA,NA,NA,NA,NA,NA,NA,NA,NA,NA,NA,NA,NA,NA,NA,NA,NA,NA,NA,NA,NA,NA,NA,NA,NA
"152",U8fJ4fEhoFGqxYLK_VNoEQ,TRUE,Champaign,44,A-Ri-Rang,character(0),-88.2290436699986,IL,3.5,40.1111735242579,business,NA,NA,NA,NA,NA,NA,NA,NA,NA,NA,NA,NA,NA,NA,TRUE,NA,FALSE,average,FALSE,FALSE,TRUE,FALSE,casual,none,FALSE,TRUE,TRUE,TRUE,1,NA,NA,NA,NA,no,TRUE,NA,FALSE,NA,no,NA,NA,NA,NA,NA,FALSE,FALSE,TRUE,FALSE,FALSE,FALSE,FALSE,FALSE,FALSE,FALSE,FALSE,FALSE,FALSE,FALSE,TRUE,FALSE,TRUE,FALSE,FALSE,FALSE,NA,NA,NA,NA,NA,NA,NA,NA,NA,NA,NA,NA,NA,NA,NA,NA,NA,NA,NA,NA,NA
"153",KFbxRthy3tKt-oi1Jp7XdQ,TRUE,Champaign,7,Natural Gourmet,character(0),-88.2479522377253,IL,4.5,40.08678484962,business,18:00,09:00,18:00,09:00,18:00,09:00,18:00,09:00,18:00,09:00,18:00,09:00,NA,NA,TRUE,NA,NA,NA,FALSE,FALSE,NA,FALSE,NA,none,FALSE,TRUE,NA,NA,2,NA,NA,NA,NA,no,TRUE,FALSE,NA,NA,NA,NA,NA,NA,NA,NA,NA,NA,NA,NA,NA,NA,NA,NA,NA,NA,NA,NA,NA,NA,NA,FALSE,FALSE,FALSE,TRUE,FALSE,NA,NA,NA,NA,NA,NA,NA,NA,NA,NA,NA,NA,NA,NA,NA,NA,NA,NA,NA,NA,NA
"154",WgmAx4SWy-71daxakDNd1g,FALSE,Champaign,16,Chevys Fresh Mex,character(0),-88.245935,IL,3,40.137405,business,22:00,11:00,21:00,11:00,21:00,11:00,21:00,11:00,21:00,11:00,22:00,11:00,21:00,11:00,TRUE,NA,NA,NA,FALSE,FALSE,NA,FALSE,casual,full_bar,TRUE,TRUE,TRUE,TRUE,2,NA,NA,NA,NA,NA,TRUE,NA,NA,NA,NA,NA,NA,NA,NA,NA,FALSE,FALSE,FALSE,FALSE,FALSE,FALSE,NA,NA,NA,NA,NA,NA,NA,NA,NA,FALSE,FALSE,FALSE,TRUE,FALSE,NA,NA,NA,NA,NA,NA,NA,NA,NA,NA,NA,NA,NA,NA,NA,NA,NA,NA,NA,NA,NA
"155",05FJCAvUFOAk8B_nIOqt7A,TRUE,Champaign,65,Legends,character(0),-88.2311675,IL,3.5,40.1105579,business,02:00,11:00,02:00,11:00,02:00,11:00,02:00,11:00,02:00,11:00,02:00,11:00,02:00,11:00,TRUE,NA,FALSE,loud,FALSE,FALSE,TRUE,TRUE,casual,full_bar,FALSE,TRUE,FALSE,TRUE,1,TRUE,FALSE,FALSE,outdoor,no,TRUE,NA,FALSE,NA,no,NA,NA,NA,NA,NA,FALSE,TRUE,TRUE,TRUE,FALSE,FALSE,FALSE,FALSE,FALSE,FALSE,FALSE,FALSE,FALSE,FALSE,TRUE,FALSE,TRUE,FALSE,FALSE,FALSE,FALSE,TRUE,FALSE,FALSE,FALSE,FALSE,NA,NA,NA,NA,NA,NA,NA,NA,NA,NA,NA,NA,NA,NA,NA
"156",JhEA8qHfNmIh8c6OHXnaYA,TRUE,Champaign,25,Hooters,character(0),-88.2468548,IL,2.5,40.1271729,business,01:00,11:00,00:00,11:00,00:00,11:00,00:00,11:00,00:00,11:00,01:00,11:00,00:00,11:00,TRUE,NA,TRUE,quiet,FALSE,FALSE,TRUE,TRUE,casual,beer_and_wine,TRUE,TRUE,FALSE,TRUE,2,TRUE,FALSE,FALSE,outdoor,NA,TRUE,NA,NA,NA,no,NA,NA,NA,NA,NA,FALSE,FALSE,TRUE,FALSE,FALSE,FALSE,FALSE,FALSE,FALSE,FALSE,FALSE,FALSE,FALSE,FALSE,FALSE,FALSE,FALSE,FALSE,TRUE,FALSE,NA,NA,NA,NA,NA,NA,NA,NA,NA,NA,NA,NA,NA,NA,NA,NA,NA,NA,NA,NA,NA
"157",9ltD-2W5nztWNbfHvkTMXA,TRUE,Champaign,11,Body Therapy Center,character(0),-88.2450068,IL,5,40.1180841,business,17:15,11:00,17:15,11:00,17:15,13:30,17:15,11:00,18:30,13:30,17:15,11:00,NA,NA,NA,NA,NA,NA,NA,NA,NA,NA,NA,NA,NA,TRUE,NA,NA,1,NA,NA,NA,NA,NA,TRUE,NA,NA,NA,NA,NA,TRUE,FALSE,NA,NA,NA,NA,NA,NA,NA,NA,NA,NA,NA,NA,NA,NA,NA,NA,NA,FALSE,TRUE,FALSE,FALSE,FALSE,NA,NA,NA,NA,NA,NA,NA,NA,NA,NA,NA,NA,NA,NA,NA,NA,NA,NA,NA,NA,NA
"158",M5E7DW8rqI4v37HhD2pzGQ,TRUE,Champaign,52,Peking Garden Restaurant,character(0),-88.2450179,IL,4,40.1178493,business,22:00,11:00,22:00,13:00,22:00,11:00,22:00,13:00,22:00,13:00,22:00,11:00,22:00,11:00,TRUE,NA,TRUE,quiet,TRUE,TRUE,FALSE,FALSE,casual,full_bar,TRUE,TRUE,TRUE,TRUE,2,NA,NA,NA,NA,no,TRUE,NA,NA,NA,NA,NA,NA,NA,NA,NA,FALSE,FALSE,TRUE,TRUE,FALSE,FALSE,FALSE,FALSE,FALSE,FALSE,FALSE,FALSE,FALSE,FALSE,TRUE,FALSE,TRUE,FALSE,FALSE,FALSE,NA,NA,NA,NA,NA,NA,NA,NA,NA,NA,NA,NA,NA,NA,NA,NA,NA,NA,NA,NA,NA
"159",TRNYNeiLLY-1yobo4rArxQ,FALSE,Champaign,17,Wonderdogs,character(0),-88.2289026,IL,4,40.1113062,business,NA,NA,NA,NA,NA,NA,NA,NA,NA,NA,NA,NA,NA,NA,TRUE,NA,NA,average,FALSE,FALSE,TRUE,FALSE,casual,none,FALSE,TRUE,TRUE,TRUE,1,NA,NA,NA,NA,NA,TRUE,NA,NA,NA,NA,TRUE,NA,NA,NA,NA,FALSE,FALSE,TRUE,FALSE,FALSE,FALSE,FALSE,FALSE,FALSE,FALSE,FALSE,FALSE,FALSE,FALSE,FALSE,FALSE,TRUE,FALSE,FALSE,FALSE,NA,NA,NA,NA,NA,NA,NA,NA,NA,NA,NA,NA,NA,NA,NA,NA,NA,NA,NA,NA,NA
"160",gVp2MmQ2VP8bzeObzX6Qtw,FALSE,Champaign,19,Dandelion Vintage & Used Clothing,character(0),-88.2428439,IL,4,40.1172781,business,18:00,11:00,18:00,11:00,18:00,11:00,18:00,11:00,18:00,11:00,18:00,11:00,17:00,12:00,NA,NA,NA,NA,NA,NA,NA,NA,NA,NA,NA,TRUE,NA,NA,2,NA,NA,NA,NA,NA,TRUE,NA,NA,NA,NA,NA,NA,NA,NA,NA,NA,NA,NA,NA,NA,NA,NA,NA,NA,NA,NA,NA,NA,NA,NA,FALSE,TRUE,FALSE,FALSE,FALSE,NA,NA,NA,NA,NA,NA,NA,NA,NA,NA,NA,NA,NA,NA,NA,NA,NA,NA,NA,NA,NA
"161",518uzb7bRmoy7Ne14j4SPA,TRUE,Champaign,15,Tumble Inn Tavern,character(0),-88.243041,IL,4.5,40.113786,business,02:00,07:00,02:00,07:00,02:00,07:00,02:00,07:00,02:00,07:00,02:00,07:00,00:00,12:00,NA,NA,NA,loud,FALSE,NA,TRUE,TRUE,NA,full_bar,NA,FALSE,NA,TRUE,1,TRUE,FALSE,FALSE,outdoor,NA,TRUE,NA,NA,NA,NA,NA,NA,NA,NA,NA,NA,NA,NA,NA,NA,NA,FALSE,FALSE,FALSE,FALSE,TRUE,FALSE,FALSE,FALSE,FALSE,FALSE,FALSE,FALSE,FALSE,FALSE,FALSE,FALSE,TRUE,FALSE,FALSE,FALSE,NA,NA,NA,NA,NA,NA,NA,NA,NA,NA,NA,NA,NA,NA,NA
"162",wyybGK78UmCoc8TNfB9x_g,TRUE,Champaign,3,Karen Luster Electrolysis,character(0),-88.2424159,IL,2.5,40.112609,business,NA,NA,NA,NA,NA,NA,NA,NA,NA,NA,NA,NA,NA,NA,NA,NA,NA,NA,NA,NA,NA,NA,NA,NA,NA,FALSE,NA,NA,2,NA,NA,NA,NA,NA,FALSE,NA,NA,NA,NA,NA,TRUE,NA,NA,NA,NA,NA,NA,NA,NA,NA,NA,NA,NA,NA,NA,NA,NA,NA,NA,FALSE,FALSE,FALSE,TRUE,FALSE,NA,NA,NA,NA,NA,NA,NA,NA,NA,NA,NA,NA,NA,NA,NA,NA,NA,NA,NA,NA,NA
"163",KUpdnQi16DGP54FlDWOJ6g,TRUE,Champaign,19,Bob Evans,character(0),-88.2444325,IL,3,40.1375386,business,NA,NA,NA,NA,NA,NA,NA,NA,NA,NA,NA,NA,NA,NA,TRUE,NA,NA,average,FALSE,FALSE,FALSE,FALSE,casual,none,TRUE,TRUE,TRUE,TRUE,1,NA,NA,NA,NA,free,TRUE,NA,NA,NA,NA,NA,NA,NA,NA,NA,FALSE,FALSE,FALSE,FALSE,FALSE,TRUE,FALSE,FALSE,FALSE,FALSE,FALSE,FALSE,FALSE,FALSE,FALSE,FALSE,FALSE,FALSE,FALSE,FALSE,NA,NA,NA,NA,NA,NA,NA,NA,NA,NA,NA,NA,NA,NA,NA,NA,NA,NA,NA,NA,NA
"164",AE8xMny18PcYqmi_OXWuEQ,TRUE,Champaign,33,Champaign Public Library,character(0),-88.2458594,IL,4.5,40.110343,business,18:00,09:00,21:00,09:00,18:00,09:00,21:00,09:00,21:00,09:00,18:00,10:00,18:00,13:00,NA,NA,NA,NA,NA,NA,NA,NA,NA,NA,NA,NA,NA,NA,NA,NA,NA,NA,NA,free,NA,NA,NA,NA,NA,NA,NA,NA,NA,NA,NA,NA,NA,NA,NA,NA,NA,NA,NA,NA,NA,NA,NA,NA,NA,NA,NA,NA,NA,NA,NA,NA,NA,NA,NA,NA,NA,NA,NA,NA,NA,NA,NA,NA,NA,NA,NA,NA,NA,NA,NA
"165",94D2j-0dZlQEnSDXylrsVw,TRUE,Champaign,4,Barr Real Estate,character(0),-88.2448367,IL,1,40.0947376,business,17:00,09:00,17:00,09:00,17:00,09:00,17:00,09:00,17:00,09:00,NA,NA,NA,NA,NA,NA,NA,NA,NA,NA,NA,NA,NA,NA,NA,NA,NA,NA,NA,NA,NA,NA,NA,NA,NA,NA,NA,NA,NA,NA,NA,NA,NA,NA,NA,NA,NA,NA,NA,NA,NA,NA,NA,NA,NA,NA,NA,NA,NA,NA,NA,NA,NA,NA,NA,NA,NA,NA,NA,NA,NA,NA,NA,NA,NA,NA,NA,NA,NA,NA,NA,NA,NA,NA,NA
"166",8sQTnQCAVFt2I36yHWIZDQ,TRUE,Champaign,8,Number 1 Nails & Alteration Shop,character(0),-88.240276,IL,2,40.137997,business,20:00,09:00,20:00,09:00,20:00,09:00,20:00,09:00,20:00,09:00,20:00,09:00,18:00,11:00,NA,NA,NA,NA,NA,NA,NA,NA,NA,NA,NA,TRUE,NA,NA,2,NA,NA,NA,NA,NA,NA,NA,NA,NA,NA,NA,FALSE,NA,NA,NA,NA,NA,NA,NA,NA,NA,NA,NA,NA,NA,NA,NA,NA,NA,NA,FALSE,FALSE,FALSE,FALSE,FALSE,NA,NA,NA,NA,NA,NA,NA,NA,NA,NA,NA,NA,NA,NA,NA,NA,NA,NA,NA,NA,NA
"167",1j7xdgHkm-zU036o9EOUDw,TRUE,Champaign,13,The Accord,character(0),-88.2408818,IL,4,40.1177536,business,02:00,18:00,22:00,18:00,02:00,18:00,02:00,18:00,NA,NA,02:00,18:00,NA,NA,NA,NA,NA,very_loud,NA,NA,TRUE,FALSE,NA,full_bar,NA,TRUE,FALSE,TRUE,2,TRUE,TRUE,TRUE,no,NA,NA,NA,NA,NA,NA,NA,NA,NA,NA,21plus,NA,NA,NA,NA,NA,NA,FALSE,FALSE,FALSE,FALSE,TRUE,FALSE,FALSE,FALSE,FALSE,FALSE,TRUE,FALSE,FALSE,FALSE,TRUE,TRUE,FALSE,TRUE,FALSE,FALSE,NA,NA,NA,NA,NA,NA,NA,NA,NA,NA,NA,NA,NA,NA,NA
"168",BNCWGVYWNEkQ586H7aYeoA,TRUE,Champaign,20,Jane Addams Book Shop,character(0),-88.2432539,IL,4.5,40.117638,business,19:00,10:00,19:00,10:00,19:00,10:00,19:00,10:00,17:30,10:00,17:00,10:00,17:00,12:00,NA,NA,NA,NA,NA,NA,NA,NA,NA,NA,NA,TRUE,NA,NA,2,NA,NA,NA,NA,NA,FALSE,TRUE,NA,NA,NA,NA,NA,NA,NA,NA,NA,NA,NA,NA,NA,NA,NA,NA,NA,NA,NA,NA,NA,NA,NA,TRUE,TRUE,FALSE,FALSE,FALSE,NA,NA,NA,NA,NA,NA,NA,NA,NA,NA,NA,NA,NA,NA,NA,NA,NA,NA,NA,NA,NA
"169",WwWJLkVOb_ZGdEeY5gtaqA,TRUE,Champaign,27,Market Place Shopping Center,character(0),-88.241027097713,IL,3,40.141728835952,business,21:00,10:00,21:00,10:00,21:00,10:00,21:00,10:00,21:00,10:00,21:00,10:00,18:00,11:00,NA,NA,NA,NA,NA,NA,NA,NA,NA,NA,NA,TRUE,NA,NA,2,NA,NA,NA,NA,NA,TRUE,NA,NA,NA,NA,NA,NA,NA,NA,NA,NA,NA,NA,NA,NA,NA,NA,NA,NA,NA,NA,NA,NA,NA,NA,FALSE,FALSE,FALSE,TRUE,FALSE,NA,NA,NA,NA,NA,NA,NA,NA,NA,NA,NA,NA,NA,NA,NA,NA,NA,NA,NA,NA,NA
"170",cWzGZ05TDIQS8zVZ9y2Fcg,TRUE,Champaign,6,Tepper Electric Supply Company,character(0),-88.243046,IL,2.5,40.1095169,business,00:00,07:30,00:00,07:30,00:00,07:30,00:00,07:30,00:00,07:30,12:00,07:30,NA,NA,NA,NA,NA,NA,NA,NA,NA,NA,NA,NA,NA,TRUE,NA,NA,4,NA,NA,NA,NA,NA,NA,NA,NA,NA,NA,NA,FALSE,NA,NA,NA,NA,NA,NA,NA,NA,NA,NA,NA,NA,NA,NA,NA,NA,NA,NA,FALSE,FALSE,FALSE,FALSE,FALSE,NA,NA,NA,NA,NA,NA,NA,NA,NA,NA,NA,NA,NA,NA,NA,NA,NA,NA,NA,NA,NA
"171",8gZy9OrA9h__P0TVlElDtw,FALSE,Champaign,8,Ivey Auto Body Specialist,character(0),-88.2316279,IL,5,40.1159902,business,NA,NA,NA,NA,NA,NA,NA,NA,NA,NA,NA,NA,NA,NA,NA,NA,NA,NA,NA,NA,NA,NA,NA,NA,NA,NA,NA,NA,NA,NA,NA,NA,NA,NA,NA,NA,NA,NA,NA,NA,NA,NA,NA,NA,NA,NA,NA,NA,NA,NA,NA,NA,NA,NA,NA,NA,NA,NA,NA,NA,NA,NA,NA,NA,NA,NA,NA,NA,NA,NA,NA,NA,NA,NA,NA,NA,NA,NA,NA,NA,NA,NA,NA,NA,NA
"172",ftjhXiYI0CFOk_px-lafWw,TRUE,Champaign,23,La Quinta Inn Champaign,character(0),-88.2448836,IL,3.5,40.1385059,business,00:00,00:00,00:00,00:00,00:00,00:00,00:00,00:00,00:00,00:00,00:00,00:00,00:00,00:00,NA,NA,NA,NA,NA,NA,NA,NA,NA,NA,NA,TRUE,NA,NA,2,NA,NA,NA,NA,free,NA,TRUE,NA,NA,NA,NA,NA,NA,NA,NA,NA,NA,NA,NA,NA,NA,NA,NA,NA,NA,NA,NA,NA,NA,NA,NA,NA,NA,NA,NA,NA,NA,NA,NA,NA,NA,NA,NA,NA,NA,NA,NA,NA,NA,NA,NA,NA,NA,NA,NA,NA
"173",MSMdhoUraQ0DLLwmLbM28A,FALSE,Champaign,24,Monical's Pizza,character(0),-88.24573,IL,3.5,40.097774,business,NA,NA,NA,NA,NA,NA,NA,NA,NA,NA,NA,NA,NA,NA,FALSE,NA,FALSE,average,FALSE,FALSE,FALSE,FALSE,casual,none,FALSE,FALSE,TRUE,TRUE,1,NA,NA,NA,NA,no,FALSE,NA,NA,NA,NA,NA,NA,NA,NA,NA,FALSE,FALSE,FALSE,TRUE,FALSE,FALSE,FALSE,FALSE,FALSE,FALSE,FALSE,FALSE,FALSE,FALSE,TRUE,FALSE,FALSE,FALSE,TRUE,FALSE,NA,NA,NA,NA,NA,NA,NA,NA,NA,NA,NA,NA,NA,NA,NA,NA,NA,NA,NA,NA,NA
"174",pygZcdPZ-XMp8CY8_5tE8A,FALSE,Champaign,15,Number One Wok,character(0),-88.2430455,IL,3.5,40.1101982,business,NA,NA,NA,NA,NA,NA,NA,NA,NA,NA,NA,NA,NA,NA,TRUE,NA,FALSE,average,FALSE,FALSE,TRUE,FALSE,casual,none,FALSE,TRUE,TRUE,TRUE,1,NA,NA,NA,NA,NA,TRUE,NA,NA,NA,NA,TRUE,NA,NA,NA,NA,FALSE,FALSE,TRUE,FALSE,FALSE,FALSE,FALSE,FALSE,FALSE,FALSE,FALSE,FALSE,FALSE,FALSE,FALSE,FALSE,FALSE,FALSE,TRUE,FALSE,NA,NA,NA,NA,NA,NA,NA,NA,NA,NA,NA,NA,NA,NA,NA,NA,NA,NA,NA,NA,NA
"175",gtBLo6tkIsU-OlUegS5RzQ,TRUE,Champaign,22,Champaign Surplus,character(0),-88.243971,IL,4,40.114015,business,20:00,10:00,20:00,10:00,20:00,10:00,20:00,10:00,20:00,10:00,18:00,09:00,17:00,12:00,NA,NA,NA,NA,NA,NA,NA,NA,NA,NA,NA,TRUE,NA,NA,2,NA,NA,NA,NA,NA,TRUE,NA,NA,NA,NA,NA,NA,NA,NA,NA,NA,NA,NA,NA,NA,NA,NA,NA,NA,NA,NA,NA,NA,NA,NA,FALSE,FALSE,FALSE,TRUE,FALSE,NA,NA,NA,NA,NA,NA,NA,NA,NA,NA,NA,NA,NA,NA,NA,NA,NA,NA,NA,NA,NA
"176",RdDRWuHNZVUCY6t-VkVsAg,TRUE,Champaign,22,Chester Street Bar,character(0),-88.239519,IL,3.5,40.1154409,business,02:00,17:00,NA,NA,NA,NA,00:00,17:00,02:00,17:00,02:00,17:00,02:00,17:00,NA,NA,NA,very_loud,FALSE,NA,TRUE,FALSE,NA,beer_and_wine,NA,FALSE,NA,TRUE,1,FALSE,TRUE,FALSE,no,NA,TRUE,NA,NA,NA,NA,NA,NA,NA,NA,18plus,NA,NA,NA,NA,NA,NA,FALSE,FALSE,FALSE,FALSE,TRUE,FALSE,FALSE,FALSE,FALSE,FALSE,TRUE,FALSE,TRUE,FALSE,TRUE,FALSE,FALSE,FALSE,FALSE,FALSE,NA,NA,NA,NA,NA,NA,NA,NA,NA,NA,NA,NA,NA,NA,NA
"177",xUgj_KF0-XRv_DBj96Yiaw,FALSE,Champaign,10,Albert Jodi & Associates,character(0),-88.2441689,IL,4.5,40.1111456,business,17:00,08:30,17:00,08:30,17:00,08:30,17:00,08:30,17:00,08:00,13:00,08:30,NA,NA,NA,NA,NA,NA,NA,NA,NA,NA,NA,NA,NA,TRUE,NA,NA,2,NA,NA,NA,NA,NA,NA,NA,NA,NA,NA,NA,TRUE,NA,NA,NA,NA,NA,NA,NA,NA,NA,NA,NA,NA,NA,NA,NA,NA,NA,NA,FALSE,FALSE,FALSE,TRUE,FALSE,NA,NA,NA,NA,NA,NA,NA,NA,NA,NA,NA,NA,NA,NA,NA,NA,NA,NA,NA,NA,NA
"178",nZd7shef-v4CMNGIR8utNA,TRUE,Champaign,4,Eddie Bauer,character(0),-88.243865,IL,3,40.1427776,business,NA,NA,NA,NA,NA,NA,NA,NA,NA,NA,NA,NA,NA,NA,NA,NA,NA,NA,NA,NA,NA,NA,NA,NA,NA,TRUE,NA,NA,2,NA,NA,NA,NA,NA,NA,NA,NA,NA,NA,NA,NA,NA,NA,NA,NA,NA,NA,NA,NA,NA,NA,NA,NA,NA,NA,NA,NA,NA,NA,FALSE,FALSE,FALSE,FALSE,FALSE,NA,NA,NA,NA,NA,NA,NA,NA,NA,NA,NA,NA,NA,NA,NA,NA,NA,NA,NA,NA,NA
"179",cHKEoEVridjGNoWPS77XAQ,TRUE,Champaign,5,DO-It-Best-Hardware,character(0),-88.2445047,IL,5,40.1123633,business,NA,NA,NA,NA,NA,NA,NA,NA,NA,NA,NA,NA,NA,NA,NA,NA,NA,NA,NA,NA,NA,NA,NA,NA,NA,TRUE,NA,NA,2,NA,NA,NA,NA,NA,TRUE,NA,NA,NA,NA,NA,NA,NA,NA,NA,NA,NA,NA,NA,NA,NA,NA,NA,NA,NA,NA,NA,NA,NA,NA,FALSE,FALSE,FALSE,TRUE,FALSE,NA,NA,NA,NA,NA,NA,NA,NA,NA,NA,NA,NA,NA,NA,NA,NA,NA,NA,NA,NA,NA
"180",Rx3CmXgtY335QhdIN2u_1g,TRUE,Champaign,46,IPPATSU Salon,character(0),-88.239229,IL,4.5,40.1155274,business,20:00,09:00,20:00,09:00,20:00,09:00,20:00,09:00,20:00,09:00,20:00,09:00,NA,NA,NA,NA,NA,NA,NA,NA,NA,NA,NA,NA,NA,TRUE,FALSE,NA,3,NA,NA,NA,NA,NA,TRUE,NA,NA,NA,NA,NA,TRUE,NA,NA,NA,NA,NA,NA,NA,NA,NA,NA,NA,NA,NA,NA,NA,NA,NA,NA,FALSE,TRUE,FALSE,FALSE,FALSE,NA,NA,NA,NA,NA,NA,TRUE,FALSE,TRUE,FALSE,FALSE,FALSE,FALSE,FALSE,NA,NA,NA,NA,NA,NA,NA
"181",ljsTa0MiQyVfKrgq2FOKdg,TRUE,Champaign,14,McDonald's,character(0),-88.2452826,IL,2.5,40.0975069,business,NA,NA,NA,NA,NA,NA,NA,NA,NA,NA,NA,NA,NA,NA,TRUE,TRUE,FALSE,quiet,FALSE,FALSE,FALSE,FALSE,casual,none,FALSE,TRUE,TRUE,TRUE,1,NA,NA,NA,NA,free,NA,NA,NA,NA,NA,NA,NA,NA,NA,NA,FALSE,FALSE,FALSE,FALSE,FALSE,TRUE,FALSE,FALSE,FALSE,FALSE,FALSE,FALSE,FALSE,FALSE,TRUE,FALSE,FALSE,FALSE,TRUE,FALSE,NA,NA,NA,NA,NA,NA,NA,NA,NA,NA,NA,NA,NA,NA,NA,NA,NA,NA,NA,NA,NA
"182",OxMl_jn8qNvV-pU2Dxj52w,FALSE,Champaign,3,Fat City Saloon,character(0),-88.242733,IL,2.5,40.110967,business,NA,NA,NA,NA,NA,NA,NA,NA,NA,NA,NA,NA,NA,NA,TRUE,NA,NA,average,NA,FALSE,TRUE,TRUE,casual,full_bar,TRUE,TRUE,FALSE,TRUE,1,NA,NA,NA,NA,NA,NA,NA,NA,NA,NA,NA,NA,NA,NA,NA,NA,NA,NA,NA,NA,NA,FALSE,FALSE,FALSE,FALSE,FALSE,FALSE,FALSE,FALSE,FALSE,FALSE,FALSE,FALSE,FALSE,FALSE,NA,NA,NA,NA,NA,NA,NA,NA,NA,NA,NA,NA,NA,NA,NA,NA,NA,NA,NA,NA,NA
"183",fZiZKAFZkm5tqCKvD2n0_A,TRUE,Champaign,3,Dentistry by Design,character(0),-88.2431953,IL,1,40.1390293,business,NA,NA,NA,NA,NA,NA,NA,NA,NA,NA,NA,NA,NA,NA,NA,NA,NA,NA,NA,NA,NA,NA,NA,NA,NA,NA,NA,NA,NA,NA,NA,NA,NA,NA,NA,NA,NA,NA,NA,NA,NA,NA,NA,NA,NA,NA,NA,NA,NA,NA,NA,NA,NA,NA,NA,NA,NA,NA,NA,NA,NA,NA,NA,NA,NA,NA,NA,NA,NA,NA,NA,NA,NA,NA,NA,NA,NA,NA,NA,NA,NA,NA,NA,NA,NA
"184",kMcbuXZx3iILJVEPyLgPpQ,TRUE,Champaign,6,Panda Express,character(0),-88.243865,IL,3,40.1427776,business,NA,NA,NA,NA,NA,NA,NA,NA,NA,NA,NA,NA,NA,NA,TRUE,FALSE,NA,average,FALSE,FALSE,FALSE,FALSE,casual,none,FALSE,TRUE,TRUE,TRUE,1,NA,NA,NA,NA,no,NA,NA,NA,NA,NA,NA,NA,NA,NA,NA,FALSE,FALSE,TRUE,FALSE,FALSE,FALSE,FALSE,FALSE,FALSE,FALSE,FALSE,FALSE,FALSE,FALSE,FALSE,FALSE,FALSE,FALSE,FALSE,FALSE,NA,NA,NA,NA,NA,NA,NA,NA,NA,NA,NA,NA,NA,NA,NA,NA,NA,NA,NA,NA,NA
"185",hBx67-2DzLq7YqlCKW448Q,TRUE,Champaign,11,G-Mart Comics,character(0),-88.2413998,IL,4.5,40.1175979,business,19:00,12:00,19:00,12:00,19:00,12:00,19:00,12:00,19:00,12:00,17:00,12:00,NA,NA,NA,NA,NA,NA,NA,NA,NA,NA,NA,NA,NA,TRUE,NA,NA,1,NA,NA,NA,NA,NA,TRUE,TRUE,NA,NA,NA,NA,NA,NA,NA,NA,NA,NA,NA,NA,NA,NA,NA,NA,NA,NA,NA,NA,NA,NA,NA,FALSE,TRUE,FALSE,FALSE,FALSE,NA,NA,NA,NA,NA,NA,NA,NA,NA,NA,NA,NA,NA,NA,NA,NA,NA,NA,NA,NA,NA
"186",EkAWF-gd-OKeXdkUKLVXtg,TRUE,Champaign,4,The Music Shoppe,character(0),-88.2421214,IL,3,40.1379861,business,18:00,10:00,18:00,10:00,18:00,10:00,18:00,10:00,18:00,10:00,17:00,10:00,NA,NA,NA,NA,NA,NA,NA,NA,NA,NA,NA,NA,NA,TRUE,NA,NA,1,NA,NA,NA,NA,NA,TRUE,NA,NA,NA,NA,NA,NA,NA,NA,NA,NA,NA,NA,NA,NA,NA,NA,NA,NA,NA,NA,NA,NA,NA,NA,FALSE,FALSE,FALSE,TRUE,FALSE,NA,NA,NA,NA,NA,NA,NA,NA,NA,NA,NA,NA,NA,NA,NA,NA,NA,NA,NA,NA,NA
"187",BnHVssX00VthoSNsMVO51g,TRUE,Champaign,27,Far East,character(0),-88.232332,IL,3.5,40.115755,business,19:00,10:00,19:00,10:00,19:00,10:00,19:00,10:00,19:00,10:00,19:00,10:00,19:00,10:00,NA,NA,NA,NA,NA,NA,NA,NA,NA,none,NA,FALSE,NA,NA,1,NA,NA,NA,NA,NA,FALSE,NA,NA,NA,NA,NA,NA,NA,NA,NA,NA,NA,NA,NA,NA,NA,NA,NA,NA,NA,NA,NA,NA,NA,NA,FALSE,TRUE,FALSE,TRUE,FALSE,NA,NA,NA,NA,NA,NA,NA,NA,NA,NA,NA,NA,NA,NA,NA,NA,NA,NA,NA,NA,NA
"188",jCMa9iWw0DV3mN4oGsGoqA,TRUE,Champaign,5,Bed Bath & Beyond,character(0),-88.2401256393977,IL,2.5,40.1368061123693,business,21:00,10:00,21:00,10:00,21:00,10:00,21:00,10:00,21:00,10:00,21:00,09:00,18:00,10:00,NA,NA,NA,NA,NA,NA,NA,NA,NA,NA,NA,TRUE,NA,NA,3,NA,NA,NA,NA,NA,NA,NA,NA,NA,NA,NA,NA,NA,NA,NA,NA,NA,NA,NA,NA,NA,NA,NA,NA,NA,NA,NA,NA,NA,NA,FALSE,FALSE,FALSE,FALSE,FALSE,NA,NA,NA,NA,NA,NA,NA,NA,NA,NA,NA,NA,NA,NA,NA,NA,NA,NA,NA,NA,NA
"189",R7oNZOg09xgqLzbqzVQxvg,TRUE,Champaign,10,LensCrafters,character(0),-88.244297,IL,2.5,40.142648,business,21:00,09:00,21:00,09:00,21:00,09:00,21:00,09:00,21:00,09:00,21:00,09:00,18:00,11:00,NA,NA,NA,NA,NA,NA,NA,NA,NA,NA,NA,TRUE,NA,NA,4,NA,NA,NA,NA,NA,NA,NA,NA,NA,NA,NA,NA,NA,NA,NA,NA,NA,NA,NA,NA,NA,NA,NA,NA,NA,NA,NA,NA,NA,NA,FALSE,FALSE,FALSE,FALSE,FALSE,NA,NA,NA,NA,NA,NA,NA,NA,NA,NA,NA,NA,NA,NA,NA,NA,NA,NA,NA,NA,NA
"190",2WhMtk_k6POWSmr054NDHw,TRUE,Champaign,7,Toys R US,character(0),-88.2396522,IL,3,40.1357212,business,NA,NA,NA,NA,NA,NA,NA,NA,NA,NA,NA,NA,NA,NA,NA,NA,NA,NA,NA,NA,NA,NA,NA,NA,NA,TRUE,NA,NA,2,NA,NA,NA,NA,NA,NA,NA,NA,NA,NA,NA,NA,NA,NA,NA,NA,NA,NA,NA,NA,NA,NA,NA,NA,NA,NA,NA,NA,NA,NA,FALSE,FALSE,FALSE,TRUE,FALSE,NA,NA,NA,NA,NA,NA,NA,NA,NA,NA,NA,NA,NA,NA,NA,NA,NA,NA,NA,NA,NA
"191",EMjKhNWBprdlb5Obcia2uA,FALSE,Champaign,12,Prime Time Pizza,character(0),-88.231376,IL,2.5,40.116061,business,NA,NA,NA,NA,NA,NA,NA,NA,NA,NA,NA,NA,NA,NA,TRUE,NA,NA,NA,FALSE,TRUE,NA,FALSE,casual,NA,NA,TRUE,FALSE,TRUE,1,NA,NA,NA,NA,NA,NA,NA,NA,NA,NA,NA,NA,NA,NA,NA,FALSE,FALSE,FALSE,FALSE,FALSE,FALSE,FALSE,FALSE,FALSE,FALSE,FALSE,FALSE,FALSE,NA,FALSE,NA,NA,NA,NA,NA,NA,NA,NA,NA,NA,NA,NA,NA,NA,NA,NA,NA,NA,NA,NA,NA,NA,NA,NA,NA,NA
"192",rKaIBzG_LGJFHsy7Uqpzmw,FALSE,Champaign,4,The Dragons Table,character(0),-88.2414942,IL,4.5,40.1171407,business,22:00,12:00,22:00,12:00,22:00,12:00,22:00,12:00,22:00,12:00,22:00,12:00,20:00,12:00,NA,NA,NA,NA,NA,NA,NA,NA,NA,NA,NA,TRUE,NA,NA,2,NA,NA,NA,NA,NA,FALSE,NA,NA,NA,NA,NA,NA,NA,NA,NA,NA,NA,NA,NA,NA,NA,NA,NA,NA,NA,NA,NA,NA,NA,NA,FALSE,TRUE,FALSE,TRUE,FALSE,NA,NA,NA,NA,NA,NA,NA,NA,NA,NA,NA,NA,NA,NA,NA,NA,NA,NA,NA,NA,NA
"193",H1dNDQpwpV9SoxbTZSj9hA,TRUE,Champaign,8,Animal Emergency Clinic Of Champaign County,character(0),-88.246951,IL,4,40.094751,business,08:00,06:00,08:00,06:00,08:00,06:00,08:00,06:00,08:00,06:00,08:00,08:00,08:00,08:00,NA,NA,NA,NA,NA,NA,NA,NA,NA,NA,NA,NA,NA,NA,NA,NA,NA,NA,NA,NA,NA,NA,NA,NA,NA,NA,NA,NA,NA,NA,NA,NA,NA,NA,NA,NA,NA,NA,NA,NA,NA,NA,NA,NA,NA,NA,NA,NA,NA,NA,NA,NA,NA,NA,NA,NA,NA,NA,NA,NA,NA,NA,NA,NA,NA,NA,NA,NA,NA,NA,NA
"194",d-H7FdvcpIE7pQ-Z2Yl_wA,TRUE,Champaign,11,Circles Boutique,character(0),-88.2434931,IL,3.5,40.1168629,business,18:00,11:00,18:00,11:00,18:00,11:00,18:00,11:00,NA,NA,18:00,11:00,17:00,11:00,NA,NA,NA,NA,NA,NA,NA,NA,NA,NA,NA,TRUE,NA,NA,3,NA,NA,NA,NA,NA,TRUE,NA,NA,NA,NA,NA,NA,NA,NA,NA,NA,NA,NA,NA,NA,NA,NA,NA,NA,NA,NA,NA,NA,NA,NA,FALSE,TRUE,FALSE,FALSE,FALSE,NA,NA,NA,NA,NA,NA,NA,NA,NA,NA,NA,NA,NA,NA,NA,NA,NA,NA,NA,NA,NA
"195",nYb3nMwhVsmc-hQRXRU4Sg,TRUE,Champaign,12,Super 8 Motel Champaign,character(0),-88.245764,IL,2,40.1385239,business,NA,NA,NA,NA,NA,NA,NA,NA,NA,NA,NA,NA,NA,NA,NA,NA,NA,NA,NA,NA,NA,NA,NA,NA,NA,TRUE,NA,NA,1,NA,NA,NA,NA,free,NA,NA,NA,NA,NA,NA,NA,NA,NA,NA,NA,NA,NA,NA,NA,NA,NA,NA,NA,NA,NA,NA,NA,NA,NA,NA,NA,NA,NA,NA,NA,NA,NA,NA,NA,NA,NA,NA,NA,NA,NA,NA,NA,NA,NA,NA,NA,NA,NA,NA,NA
"196",-QeQ71am64JKQmiPIThreQ,TRUE,Champaign,57,Kane & Company,character(0),-88.242185,IL,4.5,40.116024,business,21:00,09:00,21:00,09:00,21:00,09:00,21:00,09:00,NA,NA,17:00,09:00,NA,NA,NA,NA,NA,NA,NA,NA,NA,NA,NA,NA,NA,TRUE,TRUE,NA,3,NA,NA,NA,NA,NA,TRUE,NA,NA,NA,NA,NA,TRUE,NA,NA,NA,NA,NA,NA,NA,NA,NA,NA,NA,NA,NA,NA,NA,NA,NA,NA,FALSE,TRUE,FALSE,FALSE,FALSE,NA,NA,NA,NA,NA,NA,NA,NA,NA,NA,NA,NA,NA,NA,NA,NA,NA,NA,NA,NA,NA
"197",Rk43miYD_mqALQHUL7eMWg,FALSE,Champaign,10,Barbara's Alterations Plus,character(0),-88.2394277,IL,4,40.1148749,business,17:00,08:30,17:00,08:30,17:00,08:30,17:00,08:30,17:00,08:30,12:00,08:30,NA,NA,NA,NA,NA,NA,NA,NA,NA,NA,NA,NA,NA,TRUE,NA,NA,NA,NA,NA,NA,NA,NA,NA,NA,NA,NA,NA,NA,NA,NA,NA,NA,NA,NA,NA,NA,NA,NA,NA,NA,NA,NA,NA,NA,NA,NA,NA,NA,NA,NA,NA,NA,NA,NA,NA,NA,NA,NA,NA,NA,NA,NA,NA,NA,NA,NA,NA,NA,NA,NA,NA,NA,NA
"198",C9CCYZwmyzdawHa3WAoH0Q,TRUE,Champaign,3,Kay Jewelers,character(0),-88.243865,IL,1.5,40.1427776,business,NA,NA,NA,NA,NA,NA,NA,NA,NA,NA,NA,NA,NA,NA,NA,NA,NA,NA,NA,NA,NA,NA,NA,NA,NA,NA,NA,NA,NA,NA,NA,NA,NA,NA,NA,NA,NA,NA,NA,NA,NA,NA,NA,NA,NA,NA,NA,NA,NA,NA,NA,NA,NA,NA,NA,NA,NA,NA,NA,NA,NA,NA,NA,NA,NA,NA,NA,NA,NA,NA,NA,NA,NA,NA,NA,NA,NA,NA,NA,NA,NA,NA,NA,NA,NA
"199",yzInxReAkf7r0aRbwj02Yw,TRUE,Champaign,136,Caf Kopi,character(0),-88.242716,IL,4,40.116825,business,00:00,07:00,00:00,07:00,00:00,07:00,00:00,07:00,00:00,07:00,00:00,07:00,00:00,07:00,TRUE,NA,TRUE,NA,FALSE,FALSE,NA,TRUE,NA,none,NA,TRUE,NA,NA,1,NA,NA,NA,NA,free,TRUE,NA,NA,NA,NA,NA,FALSE,NA,NA,NA,FALSE,FALSE,FALSE,FALSE,FALSE,FALSE,NA,NA,NA,NA,NA,NA,NA,NA,NA,FALSE,TRUE,FALSE,FALSE,FALSE,NA,NA,NA,NA,NA,NA,NA,NA,NA,NA,NA,NA,NA,NA,NA,NA,NA,NA,NA,NA,NA
"200",__z6UGquEWJ7zxGhWF_hdw,TRUE,Champaign,9,Jo-Ann Fabric and Craft,character(0),-88.242982,IL,3,40.131082,business,21:00,09:00,21:00,09:00,21:00,09:00,21:00,09:00,21:00,09:00,21:00,09:00,19:00,09:00,NA,NA,NA,NA,NA,NA,NA,NA,NA,NA,NA,TRUE,NA,NA,2,NA,NA,NA,NA,NA,NA,NA,NA,NA,NA,NA,NA,NA,NA,NA,NA,NA,NA,NA,NA,NA,NA,NA,NA,NA,NA,NA,NA,NA,NA,FALSE,FALSE,FALSE,TRUE,FALSE,NA,NA,NA,NA,NA,NA,NA,NA,NA,NA,NA,NA,NA,NA,NA,NA,NA,NA,NA,NA,NA
"201",0lFRJ0q1PU_R4YaLNRWnpA,TRUE,Champaign,49,Nitaya Thai Restaurant,character(0),-88.244967,IL,3,40.118535,business,22:00,11:00,22:00,11:00,22:00,11:00,22:00,11:00,22:00,11:00,22:00,11:00,21:00,12:00,TRUE,NA,TRUE,quiet,TRUE,FALSE,FALSE,FALSE,casual,full_bar,TRUE,TRUE,TRUE,TRUE,2,NA,NA,NA,NA,no,TRUE,NA,NA,NA,NA,NA,NA,NA,NA,NA,FALSE,FALSE,TRUE,TRUE,FALSE,FALSE,FALSE,FALSE,FALSE,FALSE,FALSE,FALSE,FALSE,FALSE,TRUE,FALSE,TRUE,FALSE,FALSE,FALSE,NA,NA,NA,NA,NA,NA,NA,NA,NA,NA,NA,NA,NA,NA,NA,NA,NA,NA,NA,NA,NA
"202",BzmMwgLV32zeQPwNaUUbtg,TRUE,Champaign,10,JSM Living,character(0),-88.2324294,IL,1.5,40.1120704,business,17:00,08:00,17:00,08:00,17:00,08:00,17:00,08:00,17:00,08:00,17:00,10:00,NA,NA,NA,NA,NA,NA,NA,NA,NA,NA,NA,NA,NA,TRUE,NA,NA,NA,NA,NA,NA,NA,NA,TRUE,NA,NA,NA,NA,NA,TRUE,NA,NA,NA,NA,NA,NA,NA,NA,NA,NA,NA,NA,NA,NA,NA,NA,NA,NA,NA,NA,NA,NA,NA,NA,NA,NA,NA,NA,NA,NA,NA,NA,NA,NA,NA,NA,NA,NA,NA,NA,NA,NA,NA,NA
"203",pr0logDmieIyrlf4zF0CMQ,TRUE,Champaign,3,Acupuncture & Chinese Herb Center,character(0),-88.2450179,IL,5,40.1178493,business,NA,NA,NA,NA,NA,NA,NA,NA,NA,NA,NA,NA,NA,NA,NA,NA,NA,NA,NA,NA,NA,NA,NA,NA,NA,NA,NA,NA,NA,NA,NA,NA,NA,NA,NA,NA,NA,NA,NA,NA,NA,NA,NA,NA,NA,NA,NA,NA,NA,NA,NA,NA,NA,NA,NA,NA,NA,NA,NA,NA,NA,NA,NA,NA,NA,NA,NA,NA,NA,NA,NA,NA,NA,NA,NA,NA,NA,NA,NA,NA,NA,NA,NA,NA,NA
"204",IUhO58Il7gUEjl1RMEncHA,TRUE,Champaign,206,Farren's Pub & Eatery,character(0),-88.2449555978619,IL,4,40.1187461625883,business,23:00,11:00,22:00,11:00,22:00,11:00,22:00,11:00,22:00,11:00,23:00,11:00,22:00,16:00,TRUE,NA,NA,average,FALSE,FALSE,TRUE,FALSE,casual,full_bar,TRUE,TRUE,TRUE,TRUE,2,FALSE,FALSE,FALSE,no,no,TRUE,NA,NA,NA,NA,NA,NA,NA,NA,NA,FALSE,FALSE,TRUE,TRUE,FALSE,FALSE,FALSE,FALSE,FALSE,FALSE,FALSE,FALSE,FALSE,FALSE,TRUE,FALSE,TRUE,FALSE,FALSE,FALSE,FALSE,TRUE,FALSE,FALSE,FALSE,FALSE,NA,NA,NA,NA,NA,NA,NA,NA,NA,NA,NA,NA,NA,NA,NA
"205",LWCundUtM5OWdYxCU7daXg,TRUE,Champaign,4,Baskin Robbins,character(0),-88.2439326,IL,3,40.1104641,business,NA,NA,NA,NA,NA,NA,NA,NA,NA,NA,NA,NA,NA,NA,TRUE,NA,NA,NA,NA,NA,NA,NA,NA,NA,NA,TRUE,NA,NA,3,NA,NA,NA,NA,NA,NA,NA,NA,NA,NA,NA,NA,NA,NA,NA,NA,NA,NA,NA,NA,NA,NA,NA,NA,NA,NA,NA,NA,NA,NA,FALSE,FALSE,FALSE,FALSE,FALSE,NA,NA,NA,NA,NA,NA,NA,NA,NA,NA,NA,NA,NA,NA,NA,NA,NA,NA,NA,NA,NA
"206",xky2rWT8kpsdyJ4YgZB3Jw,TRUE,Champaign,15,Dunkin' Donuts,character(0),-88.2439326,IL,3,40.1104641,business,NA,NA,NA,NA,NA,NA,NA,NA,NA,NA,NA,NA,NA,NA,TRUE,NA,NA,NA,FALSE,FALSE,NA,FALSE,casual,NA,FALSE,TRUE,TRUE,TRUE,1,NA,NA,NA,NA,free,NA,NA,FALSE,FALSE,yes_free,NA,NA,NA,NA,NA,FALSE,FALSE,FALSE,FALSE,FALSE,FALSE,NA,NA,NA,NA,NA,NA,NA,NA,NA,FALSE,FALSE,FALSE,TRUE,FALSE,NA,NA,NA,NA,NA,NA,NA,NA,NA,NA,NA,NA,NA,NA,NA,NA,NA,NA,NA,NA,NA
"207",JwBxcuZ95ElpDs-26yQwmg,TRUE,Champaign,8,Yong's Alterations,character(0),-88.2445511,IL,3.5,40.098227,business,18:00,10:00,18:00,10:00,18:00,10:00,18:00,10:00,18:00,10:00,13:00,10:00,NA,NA,NA,NA,NA,NA,NA,NA,NA,NA,NA,NA,NA,TRUE,NA,NA,NA,NA,NA,NA,NA,NA,NA,NA,NA,NA,NA,NA,NA,NA,NA,NA,NA,NA,NA,NA,NA,NA,NA,NA,NA,NA,NA,NA,NA,NA,NA,NA,NA,NA,NA,NA,NA,NA,NA,NA,NA,NA,NA,NA,NA,NA,NA,NA,NA,NA,NA,NA,NA,NA,NA,NA,NA
"208",oP8KsXHOUA_otHHI5JHScQ,FALSE,Urbana,27,The Great Impasta,character(0),-88.2072116,IL,3,40.1112419,business,22:00,11:00,21:00,11:00,21:00,11:00,21:00,11:00,21:00,11:00,22:00,11:00,NA,NA,TRUE,NA,NA,average,TRUE,FALSE,FALSE,FALSE,casual,full_bar,TRUE,TRUE,TRUE,TRUE,2,NA,NA,NA,NA,NA,TRUE,NA,FALSE,NA,no,NA,NA,NA,NA,NA,FALSE,FALSE,TRUE,FALSE,FALSE,FALSE,FALSE,FALSE,FALSE,FALSE,FALSE,FALSE,FALSE,FALSE,FALSE,FALSE,FALSE,FALSE,TRUE,FALSE,NA,NA,NA,NA,NA,NA,NA,NA,NA,NA,NA,NA,NA,NA,NA,NA,NA,NA,NA,NA,NA
"209",g-bT9BaCzgXo7zBxBRZmUw,TRUE,Champaign,4,The Brake Shop,character(0),-88.242501,IL,5,40.113102,business,17:00,08:00,17:00,08:00,17:00,08:00,17:00,08:00,17:00,08:00,NA,NA,NA,NA,NA,NA,NA,NA,NA,NA,NA,NA,NA,NA,NA,TRUE,NA,NA,NA,NA,NA,NA,NA,NA,NA,NA,NA,NA,NA,NA,NA,NA,NA,NA,NA,NA,NA,NA,NA,NA,NA,NA,NA,NA,NA,NA,NA,NA,NA,NA,NA,NA,NA,NA,NA,NA,NA,NA,NA,NA,NA,NA,NA,NA,NA,NA,NA,NA,NA,NA,NA,NA,NA,NA,NA
"210",L3S29vAyPOxmDZ04AilwnQ,TRUE,Champaign,5,Subway,character(0),-88.244739,IL,1.5,40.0997492,business,NA,NA,NA,NA,NA,NA,NA,NA,NA,NA,NA,NA,NA,NA,TRUE,FALSE,NA,NA,FALSE,FALSE,NA,FALSE,casual,none,FALSE,TRUE,FALSE,FALSE,1,NA,NA,NA,NA,NA,TRUE,NA,NA,NA,NA,NA,NA,NA,NA,NA,NA,NA,NA,NA,NA,NA,NA,NA,NA,NA,NA,NA,NA,NA,NA,FALSE,FALSE,FALSE,FALSE,FALSE,NA,NA,NA,NA,NA,NA,NA,NA,NA,NA,NA,NA,NA,NA,NA,NA,NA,NA,NA,NA,NA
"211",vtWeg3xUqAExPb4Wg9dQTQ,TRUE,Champaign,7,Plato's Closet,character(0),-88.2414285,IL,3,40.1374653,business,21:00,10:00,21:00,10:00,21:00,10:00,21:00,10:00,21:00,10:00,21:00,10:00,18:00,12:00,NA,NA,NA,NA,NA,NA,NA,NA,NA,NA,NA,TRUE,NA,NA,1,NA,NA,NA,NA,NA,TRUE,FALSE,NA,NA,NA,NA,NA,NA,NA,NA,NA,NA,NA,NA,NA,NA,NA,NA,NA,NA,NA,NA,NA,NA,NA,FALSE,FALSE,FALSE,TRUE,FALSE,NA,NA,NA,NA,NA,NA,NA,NA,NA,NA,NA,NA,NA,NA,NA,NA,NA,NA,NA,NA,NA
"212",QttMncfha9jK3XLp8MZjAw,TRUE,Champaign,26,New Life Tattoos,character(0),-88.2331177,IL,4,40.1104696,business,22:00,11:00,20:00,11:00,20:00,11:00,20:00,11:00,20:00,11:00,22:00,11:00,19:00,12:00,NA,NA,NA,NA,NA,NA,NA,NA,NA,NA,NA,TRUE,NA,NA,2,NA,NA,NA,NA,NA,TRUE,NA,NA,NA,NA,NA,FALSE,NA,NA,NA,NA,NA,NA,NA,NA,NA,NA,NA,NA,NA,NA,NA,NA,NA,NA,FALSE,TRUE,FALSE,FALSE,FALSE,NA,NA,NA,NA,NA,NA,NA,NA,NA,NA,NA,NA,NA,NA,NA,NA,NA,NA,NA,NA,NA
"213",cvCmbiL9gnIciQTQgm4BDA,TRUE,Champaign,6,Rose Bowl Tavern,character(0),-88.2087534,IL,3.5,40.112862,business,NA,NA,NA,NA,NA,NA,NA,NA,NA,NA,NA,NA,NA,NA,NA,NA,NA,NA,NA,NA,TRUE,FALSE,NA,full_bar,NA,TRUE,NA,TRUE,1,NA,NA,FALSE,outdoor,NA,NA,NA,NA,NA,NA,NA,NA,NA,NA,NA,NA,NA,NA,NA,NA,NA,FALSE,FALSE,FALSE,FALSE,FALSE,FALSE,FALSE,FALSE,FALSE,FALSE,FALSE,FALSE,FALSE,FALSE,FALSE,NA,FALSE,TRUE,FALSE,NA,NA,NA,NA,NA,NA,NA,NA,NA,NA,NA,NA,NA,NA,NA,NA
"214",31LKw0AjFdCvGH2fIE0cwQ,FALSE,Champaign,11,Moonstruck Chocolate Cafe,character(0),-88.22911,IL,3,40.109995,business,01:00,07:00,01:00,07:00,01:00,07:00,01:00,07:00,01:00,07:00,01:00,09:00,01:00,09:00,NA,NA,NA,NA,NA,NA,NA,TRUE,NA,NA,NA,TRUE,NA,NA,3,NA,NA,NA,NA,no,TRUE,NA,NA,NA,NA,NA,NA,NA,NA,NA,NA,NA,NA,NA,NA,NA,NA,NA,NA,NA,NA,NA,NA,NA,NA,FALSE,FALSE,FALSE,FALSE,FALSE,NA,NA,NA,NA,NA,NA,NA,NA,NA,NA,NA,NA,NA,NA,NA,NA,NA,NA,NA,NA,NA
"215",TxWfLkj8LLlVLBgA0woYEg,TRUE,Champaign,15,Red Lion,character(0),-88.235626,IL,2,40.109909,business,02:00,17:00,02:00,21:00,02:00,21:00,02:00,21:00,02:00,21:00,02:00,21:00,NA,NA,NA,NA,NA,very_loud,NA,NA,TRUE,TRUE,NA,full_bar,NA,TRUE,NA,TRUE,1,TRUE,TRUE,FALSE,yes,NA,TRUE,NA,NA,NA,NA,NA,NA,NA,NA,NA,NA,NA,NA,NA,NA,NA,FALSE,FALSE,FALSE,FALSE,FALSE,FALSE,FALSE,FALSE,FALSE,FALSE,TRUE,FALSE,FALSE,FALSE,TRUE,FALSE,FALSE,FALSE,FALSE,FALSE,NA,NA,NA,NA,NA,NA,NA,NA,NA,NA,NA,NA,NA,NA,NA
"216",Wh6FdYZJz9b3x4rf6RJK_A,TRUE,Champaign,4,Taco Bell,character(0),-88.243455,IL,2.5,40.137098,business,21:00,10:00,21:00,10:00,21:00,10:00,21:00,10:00,21:00,10:00,21:00,10:00,18:00,11:00,TRUE,NA,NA,NA,FALSE,NA,NA,FALSE,casual,NA,NA,NA,TRUE,NA,NA,NA,NA,NA,NA,NA,NA,NA,NA,NA,NA,NA,NA,NA,NA,NA,NA,NA,NA,NA,NA,NA,NA,NA,NA,NA,NA,NA,NA,NA,NA,FALSE,FALSE,FALSE,FALSE,FALSE,NA,NA,NA,NA,NA,NA,NA,NA,NA,NA,NA,NA,NA,NA,NA,NA,NA,NA,NA,NA,NA
"217",pA-TU5anRV7T9abf0oTgtA,TRUE,Champaign,29,Clybourne,character(0),-88.2303608,IL,3,40.1096989,business,NA,NA,NA,NA,NA,NA,NA,NA,NA,NA,NA,NA,NA,NA,NA,NA,NA,very_loud,NA,NA,TRUE,FALSE,NA,full_bar,NA,TRUE,NA,TRUE,2,NA,TRUE,TRUE,outdoor,NA,TRUE,NA,NA,NA,NA,NA,NA,NA,NA,NA,NA,NA,NA,NA,NA,NA,FALSE,FALSE,FALSE,FALSE,FALSE,FALSE,FALSE,FALSE,TRUE,FALSE,TRUE,FALSE,FALSE,FALSE,TRUE,NA,FALSE,FALSE,FALSE,NA,NA,NA,NA,NA,NA,NA,NA,NA,NA,NA,NA,NA,NA,NA,NA
"218",79hY0d7j45ZRjTAB2d0jQQ,FALSE,Champaign,4,Subway,character(0),-88.2297751,IL,2.5,40.1081556,business,NA,NA,NA,NA,NA,NA,NA,NA,NA,NA,NA,NA,NA,NA,NA,NA,NA,NA,FALSE,FALSE,NA,FALSE,casual,NA,NA,FALSE,FALSE,FALSE,NA,NA,NA,NA,NA,no,TRUE,NA,NA,NA,NA,NA,NA,NA,NA,NA,FALSE,FALSE,FALSE,FALSE,FALSE,FALSE,NA,NA,NA,NA,NA,NA,NA,NA,NA,NA,NA,NA,NA,NA,NA,NA,NA,NA,NA,NA,NA,NA,NA,NA,NA,NA,NA,NA,NA,NA,NA,NA,NA,NA,NA
"219",I9iYkqmioN8MuWEB9wWxkg,FALSE,Champaign,51,That's Rentertainment,character(0),-88.2305203,IL,4.5,40.1092217,business,22:00,10:00,22:00,10:00,22:00,10:00,22:00,10:00,22:00,10:00,22:00,11:00,22:00,12:00,NA,NA,NA,NA,NA,NA,NA,NA,NA,NA,NA,TRUE,NA,NA,1,NA,NA,NA,NA,NA,TRUE,NA,NA,NA,NA,NA,NA,NA,NA,NA,NA,NA,NA,NA,NA,NA,NA,NA,NA,NA,NA,NA,NA,NA,NA,FALSE,TRUE,FALSE,FALSE,FALSE,NA,NA,NA,NA,NA,NA,NA,NA,NA,NA,NA,NA,NA,NA,NA,NA,NA,NA,NA,NA,NA
"220",1T2rnvl67Gk9Uc0gzsCKQA,TRUE,Champaign,36,Joe's Brewery,character(0),-88.2317829,IL,3,40.109713,business,02:00,11:00,02:00,11:00,02:00,11:00,02:00,11:00,02:00,11:00,02:00,11:00,02:00,11:00,TRUE,FALSE,TRUE,very_loud,FALSE,FALSE,TRUE,TRUE,casual,full_bar,TRUE,TRUE,FALSE,TRUE,1,TRUE,TRUE,FALSE,outdoor,no,TRUE,NA,NA,NA,NA,NA,NA,NA,NA,NA,FALSE,TRUE,FALSE,FALSE,FALSE,FALSE,FALSE,FALSE,FALSE,FALSE,FALSE,FALSE,FALSE,FALSE,FALSE,FALSE,FALSE,FALSE,FALSE,FALSE,TRUE,NA,TRUE,FALSE,FALSE,NA,NA,NA,NA,NA,NA,NA,NA,NA,NA,NA,NA,NA,NA,NA,NA
"221",fSJXsu9WKB106A1CSQQYsg,FALSE,Champaign,15,Hair Benders,character(0),-88.2304036,IL,4,40.1099946,business,17:00,08:00,18:00,08:30,18:00,08:30,18:00,08:30,17:00,09:00,17:00,08:00,NA,NA,NA,NA,NA,NA,NA,NA,NA,NA,NA,NA,NA,TRUE,TRUE,NA,2,NA,NA,NA,NA,NA,TRUE,NA,NA,NA,NA,NA,FALSE,NA,NA,NA,NA,NA,NA,NA,NA,NA,NA,NA,NA,NA,NA,NA,NA,NA,NA,FALSE,TRUE,FALSE,FALSE,FALSE,NA,NA,NA,NA,NA,NA,NA,NA,NA,NA,NA,NA,NA,NA,NA,NA,NA,NA,NA,NA,NA
"222",UvOGydGLtXt9km_ULQYyUg,TRUE,Champaign,15,The Cookie Jar,character(0),-88.2302064,IL,4.5,40.1094299,business,NA,NA,NA,NA,NA,NA,NA,NA,NA,NA,NA,NA,NA,NA,TRUE,NA,NA,NA,NA,TRUE,NA,NA,NA,NA,NA,TRUE,NA,NA,1,NA,NA,NA,NA,NA,FALSE,NA,NA,NA,NA,NA,NA,NA,NA,NA,NA,NA,NA,NA,NA,NA,NA,NA,NA,NA,NA,NA,NA,NA,NA,FALSE,TRUE,FALSE,FALSE,FALSE,NA,NA,NA,NA,NA,NA,NA,NA,NA,NA,NA,NA,NA,NA,NA,NA,NA,NA,NA,NA,NA
"223",IXsNYt0VYx-JdGRO2hIqtw,TRUE,Champaign,3,Bromley Hall,character(0),-88.234722,IL,3.5,40.10705,business,NA,NA,NA,NA,NA,NA,NA,NA,NA,NA,NA,NA,NA,NA,NA,NA,NA,NA,NA,NA,NA,NA,NA,NA,NA,NA,NA,NA,NA,NA,NA,NA,NA,NA,NA,NA,NA,NA,NA,NA,NA,NA,NA,NA,NA,NA,NA,NA,NA,NA,NA,NA,NA,NA,NA,NA,NA,NA,NA,NA,NA,NA,NA,NA,NA,NA,NA,NA,NA,NA,NA,NA,NA,NA,NA,NA,NA,NA,NA,NA,NA,NA,NA,NA,NA
"224",dXLRevtIEnAvjUhPM_zTEg,FALSE,Champaign,15,Qdoba Mexican Grill,character(0),-88.2296889,IL,2,40.110041,business,NA,NA,NA,NA,NA,NA,NA,NA,NA,NA,NA,NA,NA,NA,TRUE,NA,FALSE,quiet,FALSE,TRUE,NA,FALSE,casual,none,FALSE,TRUE,TRUE,TRUE,1,NA,NA,NA,NA,no,TRUE,NA,NA,NA,NA,NA,NA,NA,NA,NA,FALSE,FALSE,TRUE,FALSE,FALSE,FALSE,FALSE,FALSE,FALSE,FALSE,FALSE,FALSE,FALSE,FALSE,FALSE,FALSE,FALSE,FALSE,FALSE,FALSE,NA,NA,NA,NA,NA,NA,NA,NA,NA,NA,NA,NA,NA,NA,NA,NA,NA,NA,NA,NA,NA
"225",aVnl-2H0blyIFIL4tBm6ew,TRUE,Champaign,3,Bob's Pet Grooming,character(0),-88.2436688,IL,3.5,40.1076853,business,NA,NA,NA,NA,NA,NA,NA,NA,NA,NA,NA,NA,NA,NA,NA,NA,NA,NA,NA,NA,NA,NA,NA,NA,NA,NA,NA,NA,NA,NA,NA,NA,NA,NA,NA,NA,NA,NA,NA,NA,NA,NA,NA,NA,NA,NA,NA,NA,NA,NA,NA,NA,NA,NA,NA,NA,NA,NA,NA,NA,NA,NA,NA,NA,NA,NA,NA,NA,NA,NA,NA,NA,NA,NA,NA,NA,NA,NA,NA,NA,NA,NA,NA,NA,NA
"226",Mds6dJM3kSK-8v8FtNgk3g,FALSE,Champaign,4,Le Shoppe,character(0),-88.238179,IL,4.5,40.116617,business,18:00,11:00,18:00,11:00,18:00,11:00,18:00,11:00,NA,NA,18:00,11:00,NA,NA,NA,NA,NA,NA,NA,NA,NA,NA,NA,NA,NA,TRUE,NA,NA,2,NA,NA,NA,NA,NA,NA,NA,NA,NA,NA,NA,NA,NA,NA,NA,NA,NA,NA,NA,NA,NA,NA,NA,NA,NA,NA,NA,NA,NA,NA,FALSE,FALSE,FALSE,FALSE,FALSE,NA,NA,NA,NA,NA,NA,NA,NA,NA,NA,NA,NA,NA,NA,NA,NA,NA,NA,NA,NA,NA
